{
    "04NJ": {
        "lat": 39.5968017578,
        "long": -75.2334976196,
        "name": "Emmanuel ",
        "state": "New Jersey"
    },
    "0NJ5": {
        "lat": 40.8858985901,
        "long": -74.7057037354,
        "name": "Fla-Net ",
        "state": "New Jersey"
    },
    "0NJ6": {
        "lat": 39.3167991638,
        "long": -74.6328964233,
        "name": "Dix Field",
        "state": "New Jersey"
    },
    "23NJ": {
        "lat": 39.504699707,
        "long": -75.0931015015,
        "name": "Alliance ",
        "state": "New Jersey"
    },
    "2NJ1": {
        "lat": 40.6333999634,
        "long": -75.0662994385,
        "name": "Jugtown Mountain ",
        "state": "New Jersey"
    },
    "2NJ3": {
        "lat": 40.3404006958,
        "long": -74.8543014526,
        "name": "Weidel/Private/ ",
        "state": "New Jersey"
    },
    "2NJ5": {
        "lat": 40.6520004272,
        "long": -75.1859970093,
        "name": "Hartung ",
        "state": "New Jersey"
    },
    "2NJ6": {
        "lat": 40.7737007141,
        "long": -75.1593017578,
        "name": "Markle ",
        "state": "New Jersey"
    },
    "3NJ1": {
        "lat": 39.9821014404,
        "long": -74.6927032471,
        "name": "Pemberton ",
        "state": "New Jersey"
    },
    "3NJ5": {
        "lat": 40.5334014893,
        "long": -74.9162979126,
        "name": "Mock ",
        "state": "New Jersey"
    },
    "3NJ6": {
        "lat": 40.0150985718,
        "long": -74.8429031372,
        "name": "Inductotherm ",
        "state": "New Jersey"
    },
    "3NJ9": {
        "lat": 39.9411125183,
        "long": -74.7708358765,
        "name": "Allen Airstrip",
        "state": "New Jersey"
    },
    "46NJ": {
        "lat": 40.1529006958,
        "long": -74.4552001953,
        "name": "Perl Acres ",
        "state": "New Jersey"
    },
    "4NJ0": {
        "lat": 40.4492988586,
        "long": -75.0177001953,
        "name": "Windward Farms ",
        "state": "New Jersey"
    },
    "4NJ8": {
        "lat": 40.6001014709,
        "long": -74.7329025269,
        "name": "Peters ",
        "state": "New Jersey"
    },
    "5NJ2": {
        "lat": 40.5918006897,
        "long": -74.8413009644,
        "name": "Herr Mountain ",
        "state": "New Jersey"
    },
    "60NJ": {
        "lat": 40.4668006897,
        "long": -74.832901001,
        "name": "O'Dwyer ",
        "state": "New Jersey"
    },
    "61NJ": {
        "lat": 39.6915016174,
        "long": -75.1432037354,
        "name": "Thomas Browne Airpark",
        "state": "New Jersey"
    },
    "62NJ": {
        "lat": 40.808333,
        "long": -74.808333,
        "name": "Scheller ",
        "state": "New Jersey"
    },
    "67NJ": {
        "lat": 40.9697990417,
        "long": -75.0668029785,
        "name": "Mount Pleasant Landing Strip",
        "state": "New Jersey"
    },
    "6NJ0": {
        "lat": 39.7871017456,
        "long": -74.3774032593,
        "name": "Lentine South ",
        "state": "New Jersey"
    },
    "6NJ1": {
        "lat": 40.740398407,
        "long": -74.9568023682,
        "name": "Vliet ",
        "state": "New Jersey"
    },
    "6NJ8": {
        "lat": 40.5918006897,
        "long": -74.7912979126,
        "name": "Lance ",
        "state": "New Jersey"
    },
    "6NJ9": {
        "lat": 39.7918014526,
        "long": -75.3746032715,
        "name": "Bridgeport-Cahill Field",
        "state": "New Jersey"
    },
    "70NJ": {
        "lat": 40.6769981384,
        "long": -75.024597168,
        "name": "Parker ",
        "state": "New Jersey"
    },
    "7NJ2": {
        "lat": 39.481300354,
        "long": -75.4052963257,
        "name": "Stoe Creek Farm ",
        "state": "New Jersey"
    },
    "7NJ7": {
        "lat": 39.5606002808,
        "long": -75.2185974121,
        "name": "Coombs ",
        "state": "New Jersey"
    },
    "7NJ9": {
        "lat": 39.3181991577,
        "long": -75.2062988281,
        "name": "Dave's Aerodrome",
        "state": "New Jersey"
    },
    "89NJ": {
        "lat": 39.489200592,
        "long": -74.7236022949,
        "name": "Strawberry Fields ",
        "state": "New Jersey"
    },
    "8NJ0": {
        "lat": 39.5178985596,
        "long": -74.5090026855,
        "name": "Winchelsea ",
        "state": "New Jersey"
    },
    "92NJ": {
        "lat": 40.4683990479,
        "long": -75.0024032593,
        "name": "Fly-N-D Landing Strip",
        "state": "New Jersey"
    },
    "9NJ5": {
        "lat": 39.6800994873,
        "long": -75.2524032593,
        "name": "Stallone ",
        "state": "New Jersey"
    },
    "9NJ6": {
        "lat": 39.3664016724,
        "long": -75.2683029175,
        "name": "Halka Nurseries ",
        "state": "New Jersey"
    },
    "9NJ8": {
        "lat": 40.8959007263,
        "long": -74.9996032715,
        "name": "High Meadow Farms ",
        "state": "New Jersey"
    }
}