{
    "00MD": {
        "lat": 38.7570991516,
        "long": -75.7537994385,
        "name": "Slater Field",
        "state": "Maryland"
    },
    "05MD": {
        "lat": 39.2500991821,
        "long": -76.2052001953,
        "name": "Breezecroft ",
        "state": "Maryland"
    },
    "07MD": {
        "lat": 39.6082992554,
        "long": -77.051902771,
        "name": "Baugher's Orchard ",
        "state": "Maryland"
    },
    "0MD1": {
        "lat": 39.1873016357,
        "long": -75.7927017212,
        "name": "Taylor Field",
        "state": "Maryland"
    },
    "0MD2": {
        "lat": 38.2878990173,
        "long": -76.8675003052,
        "name": "Squier Landing ",
        "state": "Maryland"
    },
    "0MD4": {
        "lat": 39.2667999268,
        "long": -76.1872024536,
        "name": "Pond View Private ",
        "state": "Maryland"
    },
    "0MD6": {
        "lat": 39.3811988831,
        "long": -77.105796814,
        "name": "Walters ",
        "state": "Maryland"
    },
    "11MD": {
        "lat": 38.4333000183,
        "long": -75.6277999878,
        "name": "Tim's ",
        "state": "Maryland"
    },
    "16MD": {
        "lat": 39.668611,
        "long": -75.960278,
        "name": "High Valley ",
        "state": "Maryland"
    },
    "1MD1": {
        "lat": 38.5690002441,
        "long": -76.2863006592,
        "name": "Big Oak Farm ",
        "state": "Maryland"
    },
    "1MD3": {
        "lat": 39.3089981079,
        "long": -75.987701416,
        "name": "Krastel Farms ",
        "state": "Maryland"
    },
    "1MD8": {
        "lat": 39.6828994751,
        "long": -77.0971984863,
        "name": "Mayberry Run ",
        "state": "Maryland"
    },
    "22MD": {
        "lat": 39.5868988037,
        "long": -77.6449966431,
        "name": "Laura's Landing ",
        "state": "Maryland"
    },
    "25MD": {
        "lat": 39.1674995422,
        "long": -75.8402023315,
        "name": "Whalen Field",
        "state": "Maryland"
    },
    "29MD": {
        "lat": 39.3628005981,
        "long": -75.8127975464,
        "name": "Schlosser ",
        "state": "Maryland"
    },
    "2MD0": {
        "lat": 38.0486984253,
        "long": -75.7034988403,
        "name": "Anderson Farm ",
        "state": "Maryland"
    },
    "2MD1": {
        "lat": 38.3084983826,
        "long": -76.7247009277,
        "name": "Recompense Farm ",
        "state": "Maryland"
    },
    "2MD3": {
        "lat": 39.229,
        "long": -77.345333,
        "name": "Fly Away Farm ",
        "state": "Maryland"
    },
    "2MD4": {
        "lat": 38.3945999146,
        "long": -75.5574035645,
        "name": "Ennis Aerodrome",
        "state": "Maryland"
    },
    "2MD6": {
        "lat": 38.1440010071,
        "long": -76.4721984863,
        "name": "Cherry Field",
        "state": "Maryland"
    },
    "2MD8": {
        "lat": 39.3334007263,
        "long": -79.4413986206,
        "name": "Greater Gortner ",
        "state": "Maryland"
    },
    "32MD": {
        "lat": 39.1893997192,
        "long": -75.8768005371,
        "name": "Roseland ",
        "state": "Maryland"
    },
    "3MD0": {
        "lat": 39.3482017517,
        "long": -77.3360977173,
        "name": "Burhans Memorial ",
        "state": "Maryland"
    },
    "3MD4": {
        "lat": 38.9776000977,
        "long": -76.6393966675,
        "name": "Fairview ",
        "state": "Maryland"
    },
    "3MD5": {
        "lat": 38.6212005615,
        "long": -75.8413009644,
        "name": "Hidden Hills ",
        "state": "Maryland"
    },
    "3MD6": {
        "lat": 38.188999176,
        "long": -76.4468994141,
        "name": "West St Mary's ",
        "state": "Maryland"
    },
    "3MD8": {
        "lat": 38.6123008728,
        "long": -76.1710968018,
        "name": "Pokety ",
        "state": "Maryland"
    },
    "3MD9": {
        "lat": 38.1181983948,
        "long": -76.3912963867,
        "name": "Chandler ",
        "state": "Maryland"
    },
    "42MD": {
        "lat": 39.46829987,
        "long": -79.4253006,
        "name": "Herrington Field",
        "state": "Maryland"
    },
    "48MD": {
        "lat": 38.149167,
        "long": -75.662222,
        "name": "Le Champ ",
        "state": "Maryland"
    },
    "4MD0": {
        "lat": 38.3742980957,
        "long": -76.483001709,
        "name": "Mears Creek Airfield",
        "state": "Maryland"
    },
    "4MD1": {
        "lat": 38.3681983948,
        "long": -75.2306976318,
        "name": "Bunting's Field",
        "state": "Maryland"
    },
    "4MD2": {
        "lat": 39.4297981262,
        "long": -79.4539031982,
        "name": "Ward's ",
        "state": "Maryland"
    },
    "4MD3": {
        "lat": 38.4397010803,
        "long": -75.1594009399,
        "name": "Carey Field",
        "state": "Maryland"
    },
    "4MD4": {
        "lat": 38.3405990601,
        "long": -76.737197876,
        "name": "Clements ",
        "state": "Maryland"
    },
    "4MD6": {
        "lat": 39.625,
        "long": -76.2624969482,
        "name": "Moxley's ",
        "state": "Maryland"
    },
    "4MD7": {
        "lat": 39.646389,
        "long": -77.366667,
        "name": "Catoctin Crosswind ",
        "state": "Maryland"
    },
    "4MD8": {
        "lat": 39.3582992554,
        "long": -77.3396987915,
        "name": "Ijamsville ",
        "state": "Maryland"
    },
    "4MD9": {
        "lat": 39.4805984497,
        "long": -76.760597229,
        "name": "St John ",
        "state": "Maryland"
    },
    "5MD0": {
        "lat": 38.9893989563,
        "long": -75.8666992188,
        "name": "Marble Head Farm ",
        "state": "Maryland"
    },
    "5MD2": {
        "lat": 39.5766983032,
        "long": -78.9186019897,
        "name": "Marsh Field",
        "state": "Maryland"
    },
    "5MD5": {
        "lat": 38.1960983276,
        "long": -75.7093963623,
        "name": "Flying W ",
        "state": "Maryland"
    },
    "5MD7": {
        "lat": 38.1335983276,
        "long": -75.7630996704,
        "name": "Bluemel Field",
        "state": "Maryland"
    },
    "5MD8": {
        "lat": 38.4910011292,
        "long": -77.0115966797,
        "name": "Edelen Field",
        "state": "Maryland"
    },
    "62MD": {
        "lat": 38.488806,
        "long": -76.643633,
        "name": "Sandy Point ",
        "state": "Maryland"
    },
    "6MD1": {
        "lat": 38.8363990784,
        "long": -75.9064025879,
        "name": "Dileo Field",
        "state": "Maryland"
    },
    "6MD2": {
        "lat": 39.2458000183,
        "long": -75.8843994141,
        "name": "Spring Landing ",
        "state": "Maryland"
    },
    "6MD3": {
        "lat": 39.5969009399,
        "long": -77.5466995239,
        "name": "Harp ",
        "state": "Maryland"
    },
    "6MD4": {
        "lat": 39.7193984985,
        "long": -76.2083969116,
        "name": "Pembroke Farm ",
        "state": "Maryland"
    },
    "6MD7": {
        "lat": 39.3391990662,
        "long": -75.7667007446,
        "name": "D'Angelo ",
        "state": "Maryland"
    },
    "6MD8": {
        "lat": 38.4422988892,
        "long": -75.4032974243,
        "name": "White's Airstrip",
        "state": "Maryland"
    },
    "70MD": {
        "lat": 38.458734,
        "long": -77.23498,
        "name": "Washington Field",
        "state": "Maryland"
    },
    "7MD1": {
        "lat": 38.7033996582,
        "long": -75.8509979248,
        "name": "Magennis Farm ",
        "state": "Maryland"
    },
    "7MD7": {
        "lat": 38.0004005432,
        "long": -75.5830001831,
        "name": "Boomers Field",
        "state": "Maryland"
    },
    "7MD8": {
        "lat": 38.8564987183,
        "long": -76.3616027832,
        "name": "Kent Fort Manor ",
        "state": "Maryland"
    },
    "7MD9": {
        "lat": 38.7360992432,
        "long": -76.3167037964,
        "name": "Tilghman Whipp ",
        "state": "Maryland"
    },
    "8MD0": {
        "lat": 39.3833007813,
        "long": -77.0175018311,
        "name": "Suzie Field",
        "state": "Maryland"
    },
    "8MD4": {
        "lat": 38.9805984497,
        "long": -75.7778015137,
        "name": "Spiering ",
        "state": "Maryland"
    },
    "8MD5": {
        "lat": 39.498298645,
        "long": -77.2217025757,
        "name": "Harrison Farm ",
        "state": "Maryland"
    },
    "8MD6": {
        "lat": 38.3970985413,
        "long": -77.1468963623,
        "name": "Burgess Field",
        "state": "Maryland"
    },
    "8MD7": {
        "lat": 38.2386016846,
        "long": -76.6596984863,
        "name": "Deerfield ",
        "state": "Maryland"
    },
    "93MD": {
        "lat": 39.561833,
        "long": -75.834833,
        "name": "Knollwood Farm ",
        "state": "Maryland"
    },
    "K0W3": {
        "lat": 39.5667991638,
        "long": -76.2024002075,
        "name": "Harford County ",
        "state": "Maryland"
    },
    "K2G4": {
        "lat": 39.5802993774,
        "long": -79.3394012451,
        "name": "Garrett County ",
        "state": "Maryland"
    },
    "K2W5": {
        "lat": 38.6004981995,
        "long": -77.0729980469,
        "name": "Maryland ",
        "state": "Maryland"
    },
    "K2W6": {
        "lat": 38.3153991699,
        "long": -76.5501022339,
        "name": "St. Mary's County Regional ",
        "state": "Maryland"
    },
    "K58M": {
        "lat": 39.5741996765,
        "long": -75.8697967529,
        "name": "Cecil County ",
        "state": "Maryland"
    },
    "KADW": {
        "lat": 38.810798645,
        "long": -76.8669967651,
        "name": "Andrews Air Force Base",
        "state": "Maryland"
    },
    "KANP": {
        "lat": 38.9429016113,
        "long": -76.568397522,
        "name": "Lee ",
        "state": "Maryland"
    },
    "KAPG": {
        "lat": 39.46620178,
        "long": -76.16880035,
        "name": "Phillips Army Air Field",
        "state": "Maryland"
    },
    "KBWI": {
        "lat": 39.17539978,
        "long": -76.66829681,
        "name": "Baltimore/Washington International Thurgood Marshal ",
        "state": "Maryland"
    },
    "KCGE": {
        "lat": 38.53929901,
        "long": -76.03040314,
        "name": "Cambridge Dorchester ",
        "state": "Maryland"
    },
    "KCGS": {
        "lat": 38.9805984497,
        "long": -76.9223022461,
        "name": "College Park ",
        "state": "Maryland"
    },
    "KDMW": {
        "lat": 39.60829926,
        "long": -77.00769806,
        "name": "Carroll County Regional Jack B Poage Field",
        "state": "Maryland"
    },
    "KEDG": {
        "lat": 39.39160156,
        "long": -76.29109955,
        "name": "Weide Ahp (Aberdeen Proving Ground) Heliport",
        "state": "Maryland"
    },
    "KESN": {
        "lat": 38.8041992188,
        "long": -76.0690002441,
        "name": "Easton Newnam Field",
        "state": "Maryland"
    },
    "KFDK": {
        "lat": 39.4175987244,
        "long": -77.3742980957,
        "name": "Frederick Municipal ",
        "state": "Maryland"
    },
    "KFME": {
        "lat": 39.0853996277,
        "long": -76.7593994141,
        "name": "Tipton ",
        "state": "Maryland"
    },
    "KGAI": {
        "lat": 39.1683006287,
        "long": -77.1660003662,
        "name": "Montgomery County Airpark",
        "state": "Maryland"
    },
    "KHGR": {
        "lat": 39.707901,
        "long": -77.72949982,
        "name": "Hagerstown Regional Richard A Henson Field",
        "state": "Maryland"
    },
    "KMTN": {
        "lat": 39.32569885,
        "long": -76.4138031,
        "name": "Martin State ",
        "state": "Maryland"
    },
    "KNHK": {
        "lat": 38.2859993,
        "long": -76.41179657,
        "name": "Patuxent River Naval Air Station/Trapnell Field Aiport",
        "state": "Maryland"
    },
    "KNUI": {
        "lat": 38.1459999084,
        "long": -76.4285964966,
        "name": "Webster Nolf ",
        "state": "Maryland"
    },
    "KOXB": {
        "lat": 38.3103981018,
        "long": -75.1240005493,
        "name": "Ocean City Municipal ",
        "state": "Maryland"
    },
    "KRJD": {
        "lat": 38.9701004028,
        "long": -75.8663024902,
        "name": "Ridgely Airpark",
        "state": "Maryland"
    },
    "KSBY": {
        "lat": 38.3404998779,
        "long": -75.5102996826,
        "name": "Salisbury Ocean City Wicomico Regional ",
        "state": "Maryland"
    },
    "KVKX": {
        "lat": 38.74760056,
        "long": -76.9571991,
        "name": "Potomac Airfield",
        "state": "Maryland"
    },
    "KW32": {
        "lat": 38.748298645,
        "long": -76.932800293,
        "name": "Washington Executive Hyde Field",
        "state": "Maryland"
    },
    "KW41": {
        "lat": 38.0176010132,
        "long": -75.827796936,
        "name": "Crisfield Municipal ",
        "state": "Maryland"
    },
    "MD00": {
        "lat": 38.0461997986,
        "long": -75.5532989502,
        "name": "Fair's ",
        "state": "Maryland"
    },
    "MD01": {
        "lat": 38.1435012817,
        "long": -76.3565979004,
        "name": "Wingfield ",
        "state": "Maryland"
    },
    "MD03": {
        "lat": 39.4883995056,
        "long": -75.8110961914,
        "name": "Woodstock ",
        "state": "Maryland"
    },
    "MD04": {
        "lat": 38.568901062,
        "long": -76.2358016968,
        "name": "Rossneck ",
        "state": "Maryland"
    },
    "MD05": {
        "lat": 38.5074996948,
        "long": -77.12159729,
        "name": "Finagin Airfield",
        "state": "Maryland"
    },
    "MD06": {
        "lat": 38.3353996277,
        "long": -76.8786010742,
        "name": "Pilots Cove ",
        "state": "Maryland"
    },
    "MD09": {
        "lat": 38.9154014587,
        "long": -75.9710006714,
        "name": "Meadow Brook ",
        "state": "Maryland"
    },
    "MD11": {
        "lat": 39.2770996094,
        "long": -76.0626983643,
        "name": "Wright Field",
        "state": "Maryland"
    },
    "MD12": {
        "lat": 39.6363983154,
        "long": -77.2928009033,
        "name": "Bell ",
        "state": "Maryland"
    },
    "MD14": {
        "lat": 38.5242996216,
        "long": -76.6836013794,
        "name": "Robinson Private ",
        "state": "Maryland"
    },
    "MD17": {
        "lat": 39.5167999268,
        "long": -76.733001709,
        "name": "Tinsley Airstrip",
        "state": "Maryland"
    },
    "MD18": {
        "lat": 38.5895996094,
        "long": -76.1384963989,
        "name": "Horn Point ",
        "state": "Maryland"
    },
    "MD19": {
        "lat": 39.2032012939,
        "long": -76.0249023438,
        "name": "Hybarc Farm ",
        "state": "Maryland"
    },
    "MD20": {
        "lat": 39.6361999512,
        "long": -77.1228027344,
        "name": "Greer ",
        "state": "Maryland"
    },
    "MD21": {
        "lat": 39.1180992126,
        "long": -76.0963973999,
        "name": "Ashland Landing Farm ",
        "state": "Maryland"
    },
    "MD22": {
        "lat": 38.7834014893,
        "long": -76.5646972656,
        "name": "Deale ",
        "state": "Maryland"
    },
    "MD23": {
        "lat": 39.1447982788,
        "long": -76.0404968262,
        "name": "Kennersley ",
        "state": "Maryland"
    },
    "MD24": {
        "lat": 39.2382011414,
        "long": -76.9466018677,
        "name": "Haysfield ",
        "state": "Maryland"
    },
    "MD28": {
        "lat": 38.809299469,
        "long": -75.9922027588,
        "name": "Ewing ",
        "state": "Maryland"
    },
    "MD31": {
        "lat": 39.5801010132,
        "long": -76.3747024536,
        "name": "Forest Hill ",
        "state": "Maryland"
    },
    "MD35": {
        "lat": 38.4347991943,
        "long": -75.6512985229,
        "name": "Spring Hill ",
        "state": "Maryland"
    },
    "MD39": {
        "lat": 38.5209999084,
        "long": -77.2518997192,
        "name": "Buds Ferry ",
        "state": "Maryland"
    },
    "MD41": {
        "lat": 38.8983001709,
        "long": -75.9105987549,
        "name": "Gary Field",
        "state": "Maryland"
    },
    "MD42": {
        "lat": 39.6194992065,
        "long": -77.2275009155,
        "name": "Keymar Airpark",
        "state": "Maryland"
    },
    "MD43": {
        "lat": 39.1184005737,
        "long": -76.49659729,
        "name": "Mountain Road ",
        "state": "Maryland"
    },
    "MD45": {
        "lat": 38.2307014465,
        "long": -76.6287994385,
        "name": "Hampton ",
        "state": "Maryland"
    },
    "MD46": {
        "lat": 39.2695999146,
        "long": -77.0053024292,
        "name": "Glenair ",
        "state": "Maryland"
    },
    "MD47": {
        "lat": 39.332901001,
        "long": -77.0969009399,
        "name": "Barnes ",
        "state": "Maryland"
    },
    "MD48": {
        "lat": 39.473400116,
        "long": -76.5001983643,
        "name": "Albrecht Airstrip",
        "state": "Maryland"
    },
    "MD50": {
        "lat": 38.3611984253,
        "long": -76.4051971436,
        "name": "Chesapeake Ranch Airstrip",
        "state": "Maryland"
    },
    "MD53": {
        "lat": 38.2887001038,
        "long": -75.739402771,
        "name": "Mac Kinnis ",
        "state": "Maryland"
    },
    "MD55": {
        "lat": 38.3975982666,
        "long": -77.1860961914,
        "name": "Holly Springs Farm ",
        "state": "Maryland"
    },
    "MD56": {
        "lat": 39.5690002441,
        "long": -77.1213989258,
        "name": "Three J ",
        "state": "Maryland"
    },
    "MD57": {
        "lat": 38.0070991516,
        "long": -75.617401123,
        "name": "Beverly ",
        "state": "Maryland"
    },
    "MD59": {
        "lat": 39.1398010254,
        "long": -76.0935974121,
        "name": "Silver Hill ",
        "state": "Maryland"
    },
    "MD62": {
        "lat": 39.125,
        "long": -76.0016021729,
        "name": "Church Hill ",
        "state": "Maryland"
    },
    "MD63": {
        "lat": 39.2747993469,
        "long": -76.0099029541,
        "name": "Cromwell Farm ",
        "state": "Maryland"
    },
    "MD64": {
        "lat": 38.7995986938,
        "long": -76.2723999023,
        "name": "Stewart ",
        "state": "Maryland"
    },
    "MD66": {
        "lat": 39.3378982544,
        "long": -76.0979995728,
        "name": "Smith Field",
        "state": "Maryland"
    },
    "MD69": {
        "lat": 39.3334007263,
        "long": -76.0830001831,
        "name": "Harris ",
        "state": "Maryland"
    },
    "MD70": {
        "lat": 39.1811981201,
        "long": -75.9087982178,
        "name": "Flying Acres ",
        "state": "Maryland"
    },
    "MD73": {
        "lat": 39.4584007263,
        "long": -77.1480026245,
        "name": "Happy Landings Farm ",
        "state": "Maryland"
    },
    "MD74": {
        "lat": 39.4743003845,
        "long": -77.1952972412,
        "name": "Good Neighbor Farm ",
        "state": "Maryland"
    },
    "MD75": {
        "lat": 39.3418006897,
        "long": -77.3035964966,
        "name": "Stolcrest STOLport",
        "state": "Maryland"
    },
    "MD77": {
        "lat": 39.2597999573,
        "long": -77.3414001465,
        "name": "Flying M Farms ",
        "state": "Maryland"
    },
    "MD78": {
        "lat": 39.3833999634,
        "long": -77.0702972412,
        "name": "Woodbine ",
        "state": "Maryland"
    },
    "MD82": {
        "lat": 38.5397987366,
        "long": -76.2754974365,
        "name": "Ragged Island ",
        "state": "Maryland"
    },
    "MD83": {
        "lat": 38.5208015442,
        "long": -77.0680999756,
        "name": "Ty-Ti-To ",
        "state": "Maryland"
    },
    "MD85": {
        "lat": 38.9328994751,
        "long": -75.8901977539,
        "name": "Carmean ",
        "state": "Maryland"
    },
    "MD91": {
        "lat": 39.1523017883,
        "long": -76.0186004639,
        "name": "Saxon Farms ",
        "state": "Maryland"
    },
    "MD93": {
        "lat": 39.3750991821,
        "long": -75.9066009521,
        "name": "Hexton Farms ",
        "state": "Maryland"
    },
    "MD94": {
        "lat": 39.6764984131,
        "long": -76.0369033813,
        "name": "Farmington ",
        "state": "Maryland"
    },
    "MD95": {
        "lat": 39.4819984436,
        "long": -76.8815994263,
        "name": "Reservoir ",
        "state": "Maryland"
    },
    "MD97": {
        "lat": 38.4614982605,
        "long": -77.0464019775,
        "name": "Lanseair Farms ",
        "state": "Maryland"
    },
    "MD99": {
        "lat": 39.5005989075,
        "long": -79.072303772,
        "name": "Moran Field",
        "state": "Maryland"
    }
}