{
  "FOGB": {
    "lat": -0.1000000015,
    "long": 11.9499998093,
    "name": "Booue "
  },
  "FOGE": {
    "lat": -2.4000000954,
    "long": 11.3669996262,
    "name": "Ndende "
  },
  "FOGF": {
    "lat": -1.2829999924,
    "long": 10.6169996262,
    "name": "Fougamou "
  },
  "FOGG": {
    "lat": -1.8830000162,
    "long": 11.9329996109,
    "name": "M'Bigou "
  },
  "FOGI": {
    "lat": -2.4330000877,
    "long": 11,
    "name": "Moabi "
  },
  "FOGJ": {
    "lat": -0.1829999983,
    "long": 10.75,
    "name": "Ville "
  },
  "FOGK": {
    "lat": -1.1846100092,
    "long": 12.4413003922,
    "name": "Koulamoutou "
  },
  "FOGM": {
    "lat": -1.8451399803,
    "long": 11.0566997528,
    "name": "Mouilla Ville "
  },
  "FOGO": {
    "lat": 1.543110013,
    "long": 11.5813999176,
    "name": "Oyem "
  },
  "FOGQ": {
    "lat": -0.6652140021,
    "long": 13.6731004715,
    "name": "Okondja "
  },
  "FOGR": {
    "lat": -0.7043889761,
    "long": 10.2456998825,
    "name": "Lambarene "
  },
  "FOGV": {
    "lat": 2.1500000954,
    "long": 12.1330003738,
    "name": "Minvoul "
  },
  "FOOB": {
    "lat": 2.0756399632,
    "long": 11.4932003021,
    "name": "Bitam "
  },
  "FOOC": {
    "lat": 1,
    "long": 9.5830001831,
    "name": "Cocobeach "
  },
  "FOOD": {
    "lat": -1.5329999924,
    "long": 13.2670001984,
    "name": "Moanda "
  },
  "FOOE": {
    "lat": 1.0169999599,
    "long": 13.9329996109,
    "name": "Mekambo "
  },
  "FOOG": {
    "lat": -0.7117390037,
    "long": 8.7543802261,
    "name": "Port Gentil "
  },
  "FOOH": {
    "lat": -1.5747300386,
    "long": 9.2626895905,
    "name": "Omboue Hopital "
  },
  "FOOK": {
    "lat": 0.5792109966,
    "long": 12.8908996582,
    "name": "Makokou "
  },
  "FOOL": {
    "lat": 0.4586000144,
    "long": 9.4122800827,
    "name": "Leon M Ba "
  },
  "FOOM": {
    "lat": 0.7829999924,
    "long": 11.5500001907,
    "name": "Mitzic "
  },
  "FOON": {
    "lat": -1.656159997,
    "long": 13.4379997253,
    "name": "M'Vengue El Hadj Omar Bongo Ondimba International "
  },
  "FOOR": {
    "lat": -0.8266670108,
    "long": 12.7486000061,
    "name": "Lastourville "
  },
  "FOOS": {
    "lat": -2.5329999924,
    "long": 9.7670001984,
    "name": "Sette Cama "
  },
  "FOOT": {
    "lat": -2.8499999046,
    "long": 11.0170001984,
    "name": "Tchibanga "
  },
  "FOOY": {
    "lat": -3.4584197998,
    "long": 10.6740760803,
    "name": "Mayumba "
  }
}