{
  "WA1B": {
    "lat": -6.5734200478,
    "long": 134.1470031738,
    "name": "Aru "
  },
  "WA44": {
    "lat": -5.7645702362,
    "long": 123.9169998169,
    "name": "Maranggo "
  },
  "WA98": {
    "lat": 1.1018899679,
    "long": 127.7030029297,
    "name": "Kobok "
  },
  "WAAA": {
    "lat": -5.0616297722,
    "long": 119.5540008545,
    "name": "Hasanuddin International "
  },
  "WAAG": {
    "lat": -3.7269439697,
    "long": 119.7363891602,
    "name": "Malimpung "
  },
  "WAAL": {
    "lat": -4.3166670799,
    "long": 122.4666671753,
    "name": "Ponggaluku "
  },
  "WAAP": {
    "lat": -4.0637698174,
    "long": 121.6240005493,
    "name": "Kolaka "
  },
  "WAAT": {
    "lat": -3.1093599796,
    "long": 119.856002808,
    "name": "Makale "
  },
  "WABB": {
    "lat": -1.1900199652,
    "long": 136.108001709,
    "name": "Frans Kaisiepo "
  },
  "WABD": {
    "lat": -3.9834020138,
    "long": 136.0832977295,
    "name": "Moanamani "
  },
  "WABF": {
    "lat": -0.9363250136,
    "long": 134.871994019,
    "name": "Kornasoren Airfield"
  },
  "WABG": {
    "lat": -4.0442299843,
    "long": 136.2779998779,
    "name": "Wagethe "
  },
  "WABI": {
    "lat": -3.3681800365,
    "long": 135.4960021973,
    "name": "Nabire "
  },
  "WABL": {
    "lat": -3.8332800865,
    "long": 137.5829925537,
    "name": "Illaga "
  },
  "WABN": {
    "lat": -4.7166671753,
    "long": 136.4333343506,
    "name": "Kokonau "
  },
  "WABO": {
    "lat": -1.8755799532,
    "long": 136.2409973145,
    "name": "Serui "
  },
  "WABP": {
    "lat": -4.5282797813,
    "long": 136.8869934082,
    "name": "Moses Kilangin "
  },
  "WABT": {
    "lat": -3.9258999825,
    "long": 136.3769989014,
    "name": "Enarotali "
  },
  "WABU": {
    "lat": -1.1735899448,
    "long": 136.0800018311,
    "name": "Biak Manuhua "
  },
  "WABW": {
    "lat": -1.6285300255,
    "long": 134.1239929199,
    "name": "Waren "
  },
  "WADA": {
    "lat": -8.5607099533,
    "long": 116.095001221,
    "name": "Selaparang "
  },
  "WADB": {
    "lat": -8.5396499634,
    "long": 118.68699646,
    "name": "Muhammad Salahuddin "
  },
  "WADD": {
    "lat": -8.748169899,
    "long": 115.1669998169,
    "name": "Ngurah Rai (Bali) International "
  },
  "WADL": {
    "lat": -8.757322,
    "long": 116.276675,
    "name": "Bandara International Lombok "
  },
  "WADS": {
    "lat": -8.4890403748,
    "long": 117.4120025635,
    "name": "Sumbawa Besar "
  },
  "WADT": {
    "lat": -9.4097204208,
    "long": 119.2440032959,
    "name": "Tambolaka "
  },
  "WADW": {
    "lat": -9.6692199707,
    "long": 120.302001953,
    "name": "Waingapu "
  },
  "WAHI": {
    "lat": -7.907459,
    "long": 110.05448,
    "name": "Yogyakarta International "
  },
  "WAJA": {
    "lat": -2.9333329201,
    "long": 140.7833404541,
    "name": "Arso "
  },
  "WAJB": {
    "lat": -3.5836451054,
    "long": 138.5334472656,
    "name": "Bokondini "
  },
  "WAJD": {
    "lat": -1.935289979,
    "long": 139.0200042725,
    "name": "Wakde "
  },
  "WAJI": {
    "lat": -1.8695499897,
    "long": 138.75,
    "name": "Sarmi "
  },
  "WAJJ": {
    "lat": -2.5769500732,
    "long": 140.5160064697,
    "name": "Sentani "
  },
  "WAJL": {
    "lat": -3.1278998852,
    "long": 139.9429931641,
    "name": "Lereh "
  },
  "WAJM": {
    "lat": -3.7094700336,
    "long": 137.9759979248,
    "name": "Mulia "
  },
  "WAJO": {
    "lat": -5.0910601616,
    "long": 140.6100006104,
    "name": "Oksibil "
  },
  "WAJR": {
    "lat": -3.2224299908,
    "long": 140.9790039063,
    "name": "Waris "
  },
  "WAJS": {
    "lat": -3.4333300591,
    "long": 140.8170013428,
    "name": "Senggeh "
  },
  "WAJU": {
    "lat": -3.666670084,
    "long": 140.8500061035,
    "name": "Ubrub "
  },
  "WAJW": {
    "lat": -4.1025099754,
    "long": 138.9570007324,
    "name": "Wamena "
  },
  "WAKD": {
    "lat": -5.75,
    "long": 140.3670043945,
    "name": "Mindiptana "
  },
  "WAKE": {
    "lat": -7.714630127,
    "long": 139.5749969482,
    "name": "Bade "
  },
  "WAKG": {
    "lat": -5.5414600372,
    "long": 138.1333312988,
    "name": "Agats "
  },
  "WAKK": {
    "lat": -8.5202903748,
    "long": 140.4179992676,
    "name": "Mopah "
  },
  "WAKO": {
    "lat": -8.0882196426,
    "long": 139.7189941406,
    "name": "Okaba "
  },
  "WAKP": {
    "lat": -6.5943698883,
    "long": 139.3569946289,
    "name": "Kepi "
  },
  "WAKT": {
    "lat": -6.099219799,
    "long": 140.2980041504,
    "name": "Tanah Merah "
  },
  "WALE": {
    "lat": -0.2036110014,
    "long": 115.7600021362,
    "name": "Melak "
  },
  "WALG": {
    "lat": 2.8364100456,
    "long": 117.3740005493,
    "name": "Tanjung Harapan "
  },
  "WALJ": {
    "lat": 0.626,
    "long": 116.6006,
    "name": "Datadawai "
  },
  "WALK": {
    "lat": 2.1554999352,
    "long": 117.431999207,
    "name": "Barau(Kalimaru) "
  },
  "WALL": {
    "lat": -1.2682700157,
    "long": 116.8939971924,
    "name": "Sepinggan International "
  },
  "WALQ": {
    "lat": -0.3060750067,
    "long": 117.4160003662,
    "name": "Muara Badak Pujangan "
  },
  "WALR": {
    "lat": 3.3266899586,
    "long": 117.5660018921,
    "name": "Juwata "
  },
  "WALS": {
    "lat": -0.373611,
    "long": 117.255556,
    "name": "Aji Pangeran Tumenggung Pranoto International "
  },
  "WALT": {
    "lat": -0.0929730013,
    "long": 117.4530029297,
    "name": "Tanjung Santan "
  },
  "WALV": {
    "lat": 3.4557199478,
    "long": 117.866996765,
    "name": "Bunyu "
  },
  "WALX": {
    "lat": 2.0075099468,
    "long": 117.7490005493,
    "name": "Mangkajang "
  },
  "WAMA": {
    "lat": 1.8383300304,
    "long": 127.7860031128,
    "name": "Gamarmalamo "
  },
  "WAMB": {
    "lat": 0.7288889885,
    "long": 124.3088912964,
    "name": "Kotamubagu "
  },
  "WAMC": {
    "lat": -2,
    "long": 120.7666702271,
    "name": "Tentena "
  },
  "WAMD": {
    "lat": 1.1169999838,
    "long": 127.483001709,
    "name": "Jailolo/Kuripasai "
  },
  "WAMG": {
    "lat": 0.6371189952,
    "long": 122.8499984741,
    "name": "Jalaluddin "
  },
  "WAMH": {
    "lat": 3.6832098961,
    "long": 125.5279998779,
    "name": "Naha "
  },
  "WAMI": {
    "lat": -1.0297700167,
    "long": 120.8170013428,
    "name": "Toli Toli "
  },
  "WAMJ": {
    "lat": -0.0788889974,
    "long": 129.4579925537,
    "name": "Gebe "
  },
  "WAMK": {
    "lat": 1.1852799654,
    "long": 127.8960037231,
    "name": "Kao "
  },
  "WAML": {
    "lat": -0.9185420275,
    "long": 119.9100036621,
    "name": "Mutiara "
  },
  "WAMM": {
    "lat": 1.5492600203,
    "long": 124.9260025024,
    "name": "Sam Ratulangi "
  },
  "WAMN": {
    "lat": 4.006939888,
    "long": 126.672996521,
    "name": "Melangguane "
  },
  "WAMP": {
    "lat": -1.4167499542,
    "long": 120.657997131,
    "name": "Kasiguncu "
  },
  "WAMR": {
    "lat": 2.0459899902,
    "long": 128.324996948,
    "name": "Pitu "
  },
  "WAMT": {
    "lat": 0.8314139843,
    "long": 127.3809967041,
    "name": "Sultan Khairun Babullah "
  },
  "WAMU": {
    "lat": -1.4249999523,
    "long": 120.3163909912,
    "name": "Wuasa "
  },
  "WAMW": {
    "lat": -1.0389200449,
    "long": 122.7720031738,
    "name": "Bubung "
  },
  "WAMY": {
    "lat": 1.1590499878,
    "long": 121.4280014038,
    "name": "Buol "
  },
  "WAOC": {
    "lat": -3.4124100208,
    "long": 115.995002747,
    "name": "Batu Licin "
  },
  "WAOH": {
    "lat": -3.9899098873,
    "long": 116.1019973755,
    "name": "Mekar Putih "
  },
  "WAOI": {
    "lat": -2.7051999569,
    "long": 111.672996521,
    "name": "Iskandar "
  },
  "WAOK": {
    "lat": -3.2947199345,
    "long": 116.1650009155,
    "name": "Stagen "
  },
  "WAOL": {
    "lat": -2.8666698933,
    "long": 112.5329971313,
    "name": "Kuala Pembuang "
  },
  "WAOM": {
    "lat": -0.9403250217,
    "long": 114.8938751221,
    "name": "Beringin "
  },
  "WAON": {
    "lat": -2.2165598869,
    "long": 115.435997009,
    "name": "Warukin "
  },
  "WAOO": {
    "lat": -3.4423599243,
    "long": 114.7630004883,
    "name": "Syamsudin Noor "
  },
  "WAOP": {
    "lat": -2.2251300812,
    "long": 113.9430007935,
    "name": "Tjilik Riwut "
  },
  "WAOS": {
    "lat": -2.4991900921,
    "long": 112.9749984741,
    "name": "Sampit(Hasan) "
  },
  "WAOU": {
    "lat": -1.6692999601,
    "long": 114.8980026245,
    "name": "SANGGU  Buntok"
  },
  "WAPA": {
    "lat": -3.3480000496,
    "long": 128.925994873,
    "name": "Amahai "
  },
  "WAPB": {
    "lat": -3.1099600792,
    "long": 130.5099945068,
    "name": "Bula "
  },
  "WAPC": {
    "lat": 5.1166701317,
    "long": 97.1166992188,
    "name": "Banda  Kepulauan"
  },
  "WAPD": {
    "lat": -5.7722201347,
    "long": 134.2120056152,
    "name": "Dobo "
  },
  "WAPE": {
    "lat": -1.87579,
    "long": 125.8300018311,
    "name": "Mangole  Falabisahaya"
  },
  "WAPG": {
    "lat": -3.8208100796,
    "long": 126.7180023193,
    "name": "Namrole "
  },
  "WAPH": {
    "lat": -0.6352589726,
    "long": 127.5019989014,
    "name": "Oesman Sadik  Labuha"
  },
  "WAPI": {
    "lat": -7.9886097908,
    "long": 131.3059997559,
    "name": "Saumlaki "
  },
  "WAPK": {
    "lat": -6.0661997795,
    "long": 134.2740020752,
    "name": "Nangasuri "
  },
  "WAPL": {
    "lat": -5.6616201401,
    "long": 132.7310028076,
    "name": "Dumatumbun "
  },
  "WAPN": {
    "lat": -2.080509901,
    "long": 125.9670028687,
    "name": "Emalamo Sanana "
  },
  "WAPO": {
    "lat": -7.1333298683,
    "long": 131.7830047607,
    "name": "Larat Kepulauan Larat"
  },
  "WAPP": {
    "lat": -3.7102599144,
    "long": 128.0890045166,
    "name": "Pattimura  Ambon"
  },
  "WAPQ": {
    "lat": -8.0184898376,
    "long": 127.1969985962,
    "name": "Kisar "
  },
  "WAPR": {
    "lat": -3.2355699539,
    "long": 127.0999984741,
    "name": "Namlea "
  },
  "WAPT": {
    "lat": -1.642629981,
    "long": 124.5589981079,
    "name": "Taliabu Island "
  },
  "WAPV": {
    "lat": -2.8141698837,
    "long": 129.4819946289,
    "name": "WahaiSeram Island"
  },
  "WARA": {
    "lat": -7.9265599251,
    "long": 112.714996338,
    "name": "Abdul Rachman Saleh "
  },
  "WARC": {
    "lat": -7.1948416667,
    "long": 111.548166667,
    "name": "Cepu "
  },
  "WARI": {
    "lat": -7.6157698631,
    "long": 111.4339981079,
    "name": "Iswahyudi "
  },
  "WARJ": {
    "lat": -7.7881798744,
    "long": 110.4319992065,
    "name": "Adi Sutjipto International "
  },
  "WARQ": {
    "lat": -7.5160899162,
    "long": 110.7570037842,
    "name": "Adi Sumarmo Wiryokusumo "
  },
  "WARR": {
    "lat": -7.3798298836,
    "long": 112.7870025635,
    "name": "Juanda International "
  },
  "WARS": {
    "lat": -6.9727301598,
    "long": 110.375,
    "name": "Achmad Yani "
  },
  "WART": {
    "lat": -7.02425,
    "long": 113.890205556,
    "name": "Trunojoyo "
  },
  "WARU": {
    "lat": -5.8111109734,
    "long": 110.4777755737,
    "name": "Dewadaru - Kemujan Island"
  },
  "WASB": {
    "lat": -2.1041600704,
    "long": 133.5220031738,
    "name": "Stenkol "
  },
  "WASC": {
    "lat": -1.5084500313,
    "long": 134.18699646,
    "name": "Abresso "
  },
  "WASE": {
    "lat": -0.6371009946,
    "long": 133.1280059814,
    "name": "Kebar "
  },
  "WASF": {
    "lat": -2.9201900959,
    "long": 132.266998291,
    "name": "Fakfak "
  },
  "WASI": {
    "lat": -2.1280999184,
    "long": 132.1609954834,
    "name": "Inanwatan "
  },
  "WASK": {
    "lat": -3.6445200443,
    "long": 133.6959991455,
    "name": "Kaimana "
  },
  "WASM": {
    "lat": -1.5833300352,
    "long": 133.3329925537,
    "name": "Merdei "
  },
  "WASO": {
    "lat": -2.5322399139,
    "long": 133.4389953613,
    "name": "Babo "
  },
  "WASR": {
    "lat": -0.8918330073,
    "long": 134.0489959717,
    "name": "Rendani "
  },
  "WASS": {
    "lat": -0.9263579845,
    "long": 131.1210021973,
    "name": "Sorong (Jefman) "
  },
  "WAST": {
    "lat": -1.4447200298,
    "long": 132.0209960938,
    "name": "Teminabuan "
  },
  "WASW": {
    "lat": -2.7335898876,
    "long": 134.5180053711,
    "name": "Wasior "
  },
  "WATB": {
    "lat": -8.7074349801,
    "long": 121.057426929,
    "name": "Bajawa Soa "
  },
  "WATC": {
    "lat": -8.6406497955,
    "long": 122.236999512,
    "name": "Maumere(Wai Oti) "
  },
  "WATE": {
    "lat": -8.8492898941,
    "long": 121.661003113,
    "name": "Ende (H Hasan Aroeboesman) "
  },
  "WATG": {
    "lat": -8.5970096588,
    "long": 120.4769973755,
    "name": "Satar Tacik "
  },
  "WATM": {
    "lat": -8.1323404312,
    "long": 124.5970001221,
    "name": "Mali "
  },
  "WATO": {
    "lat": -8.4866600037,
    "long": 119.888999939,
    "name": "Komodo (Mutiara II) "
  },
  "WATT": {
    "lat": -10.1716003418,
    "long": 123.6709976196,
    "name": "El Tari "
  },
  "WAWB": {
    "lat": -5.4868798256,
    "long": 122.5690002441,
    "name": "Betoambari "
  },
  "WAWJ": {
    "lat": -2.583333,
    "long": 119.033333,
    "name": "Tampa Padang "
  },
  "WAWM": {
    "lat": -2.5580399036,
    "long": 120.3239974976,
    "name": "Andi Jemma "
  },
  "WAWP": {
    "lat": -4.341217,
    "long": 121.523983,
    "name": "Sangia Nibandera "
  },
  "WAWS": {
    "lat": -2.5311999321,
    "long": 121.358001709,
    "name": "Soroako "
  },
  "WAWT": {
    "lat": -3.0447399616,
    "long": 119.8219985962,
    "name": "Pongtiku "
  },
  "WAWW": {
    "lat": -4.0816102028,
    "long": 122.4179992676,
    "name": "Wolter Monginsidi "
  },
  "WAXX": {
    "lat": -0.89517802,
    "long": 131.2850036621,
    "name": "Dominique Edward Osok "
  },
  "WI1A": {
    "lat": -7.720389843,
    "long": 108.4899978638,
    "name": "Nusawiru "
  },
  "WI1B": {
    "lat": -6.9038600922,
    "long": 107.475997925,
    "name": "Batujajar "
  },
  "WI1C": {
    "lat": -6.3732199669,
    "long": 106.6220016479,
    "name": "Rumpin "
  },
  "WI1G": {
    "lat": -7.9165902138,
    "long": 110.5640029907,
    "name": "Gading Wonosari "
  },
  "WI1S": {
    "lat": 4.7208800316,
    "long": 96.8511962891,
    "name": "Simpangtiga Redelong "
  },
  "WIAG": {
    "lat": -4.4894399643,
    "long": 105.2170028687,
    "name": "Menggala "
  },
  "WIAJ": {
    "lat": -6.5402777778,
    "long": 106.755277778,
    "name": "Semplak "
  },
  "WIAK": {
    "lat": -6.9827799797,
    "long": 107.572998047,
    "name": "Margahayu "
  },
  "WIAP": {
    "lat": -6.4648499489,
    "long": 105.96900177,
    "name": "Banyumas "
  },
  "WIBB": {
    "lat": 0.4607860148,
    "long": 101.4449996948,
    "name": "Sultan Syarif Kasim Ii (Simpang Tiga) "
  },
  "WIBD": {
    "lat": 1.6091899872,
    "long": 101.4339981079,
    "name": "Pinang Kampai "
  },
  "WIBR": {
    "lat": -2.0991199017,
    "long": 99.7006988525,
    "name": "Rokot "
  },
  "WIBS": {
    "lat": 1.3700000048,
    "long": 102.1399993896,
    "name": "Sungai Pakning Bengkalis "
  },
  "WIBT": {
    "lat": 1.0499999523,
    "long": 103.3830032349,
    "name": "Tanjung Balai "
  },
  "WICB": {
    "lat": -6.2931699753,
    "long": 106.569999695,
    "name": "Budiarto "
  },
  "WICC": {
    "lat": -6.9006299973,
    "long": 107.5759963989,
    "name": "Husein Sastranegara International "
  },
  "WICD": {
    "lat": -6.7561402321,
    "long": 108.540000916,
    "name": "Penggung "
  },
  "WICM": {
    "lat": -7.3466000557,
    "long": 108.246002197,
    "name": "Cibeureum "
  },
  "WICT": {
    "lat": -5.240556,
    "long": 105.175556,
    "name": "Radin Inten II (Branti) "
  },
  "WIDD": {
    "lat": 1.121029973,
    "long": 104.1190032959,
    "name": "Hang Nadim "
  },
  "WIDE": {
    "lat": 0.8454310298,
    "long": 100.3700027466,
    "name": "Pasir Pangaraan "
  },
  "WIDN": {
    "lat": 0.9226830006,
    "long": 104.531997681,
    "name": "Kijang "
  },
  "WIDS": {
    "lat": -0.4791890085,
    "long": 104.5790023804,
    "name": "Dabo "
  },
  "WIEE": {
    "lat": -0.7869169712,
    "long": 100.28099823,
    "name": "Minangkabau "
  },
  "WIHH": {
    "lat": -6.2666101456,
    "long": 106.8909988403,
    "name": "Halim Perdanakusuma International "
  },
  "WIHL": {
    "lat": -7.6450600624,
    "long": 109.033996582,
    "name": "Tunggul Wulung "
  },
  "WIHP": {
    "lat": -6.3369598389,
    "long": 106.7649993896,
    "name": "Pondok Cabe Air Base"
  },
  "WIIG": {
    "lat": -5.644444,
    "long": 106.5625,
    "name": "Pulau Panjang "
  },
  "WIII": {
    "lat": -6.1255698204,
    "long": 106.65599823,
    "name": "Soekarno-Hatta International "
  },
  "WIIK": {
    "lat": -6.5313901901,
    "long": 107.658996582,
    "name": "Kalijati "
  },
  "WIIR": {
    "lat": -6.9766669273,
    "long": 106.5327758789,
    "name": "Pelabuhan Ratu "
  },
  "WIKL": {
    "lat": -3.2777500153,
    "long": 102.901000977,
    "name": "Silampari "
  },
  "WIMA": {
    "lat": 2.5129001141,
    "long": 100.1790008545,
    "name": "Labuhan Bilik "
  },
  "WIMB": {
    "lat": 1.1663800478,
    "long": 97.7046966553,
    "name": "Binaka "
  },
  "WIME": {
    "lat": 1.4000999928,
    "long": 99.4304962158,
    "name": "Aek Godang "
  },
  "WIMG": {
    "lat": -0.8749889731,
    "long": 100.351997375,
    "name": "Tabing "
  },
  "WIMH": {
    "lat": 3.6830599308,
    "long": 98.644203186,
    "name": "Helvetia "
  },
  "WIMK": {
    "lat": 3.559167,
    "long": 98.671111,
    "name": "Soewondo Air Force Base"
  },
  "WIML": {
    "lat": 2.9737899303,
    "long": 99.6009979248,
    "name": "Kisaran "
  },
  "WIMM": {
    "lat": 3.5580599308,
    "long": 98.6716995239,
    "name": "Polonia International "
  },
  "WIMN": {
    "lat": 2.259722,
    "long": 98.995278,
    "name": "Sisingamangaraja XII International "
  },
  "WIMO": {
    "lat": -0.01924,
    "long": 98.30097,
    "name": "Bandar Udara Lasondre"
  },
  "WIMP": {
    "lat": 2.6666669846,
    "long": 98.9333343506,
    "name": "Parapat "
  },
  "WIMR": {
    "lat": 2.9500000477,
    "long": 99.0500030518,
    "name": "Pematang Siantar"
  },
  "WIMS": {
    "lat": 1.555940032,
    "long": 98.8889007568,
    "name": "Dr Ferdinand Lumban Tobing "
  },
  "WIMT": {
    "lat": 3.3666670322,
    "long": 99.1166687012,
    "name": "Tebing Tinggi "
  },
  "WIOB": {
    "lat": 0.8333330154,
    "long": 109.4833297729,
    "name": "Bengkayang "
  },
  "WIOD": {
    "lat": -2.7457199097,
    "long": 107.754997253,
    "name": "Buluh Tumbang (H A S Hanandjoeddin) "
  },
  "WIOG": {
    "lat": -0.3488689959,
    "long": 111.7480010986,
    "name": "Nanga Pinoh I "
  },
  "WIOI": {
    "lat": 1.0756800175,
    "long": 109.68800354,
    "name": "Singkawang "
  },
  "WIOK": {
    "lat": -1.8166400194,
    "long": 109.9629974365,
    "name": "Ketapang(Rahadi Usman) "
  },
  "WIOM": {
    "lat": 3.3481199741,
    "long": 106.2580032349,
    "name": "Tarempa "
  },
  "WION": {
    "lat": 3.9087100029,
    "long": 108.3880004883,
    "name": "Ranai "
  },
  "WIOO": {
    "lat": -0.150711,
    "long": 109.4039993286,
    "name": "Supadio "
  },
  "WIOP": {
    "lat": 0.8355780244,
    "long": 112.93699646,
    "name": "Pangsuma "
  },
  "WIOS": {
    "lat": 0.0636190027,
    "long": 111.4729995728,
    "name": "Sintang(Susilo) "
  },
  "WIPA": {
    "lat": -1.6380200386,
    "long": 103.6439971924,
    "name": "Sultan Thaha "
  },
  "WIPD": {
    "lat": -4.7870202065,
    "long": 103.9329986572,
    "name": "Banding Agung "
  },
  "WIPF": {
    "lat": -0.8166670203,
    "long": 103.4666671753,
    "name": "Kuala Tungkal "
  },
  "WIPK": {
    "lat": -2.1621999741,
    "long": 106.138999939,
    "name": "Pangkal Pinang (Depati Amir) "
  },
  "WIPL": {
    "lat": -3.863699913,
    "long": 102.3389968872,
    "name": "Padang Kemiling (Fatmawati Soekarno) "
  },
  "WIPO": {
    "lat": -4.391769886,
    "long": 104.4010009766,
    "name": "Gatot Subrato "
  },
  "WIPP": {
    "lat": -2.898250103,
    "long": 104.6999969482,
    "name": "Sultan Mahmud Badaruddin Ii "
  },
  "WIPQ": {
    "lat": -3.2860701084,
    "long": 103.8799972534,
    "name": "Pendopo "
  },
  "WIPR": {
    "lat": -0.3528079987,
    "long": 102.3349990845,
    "name": "Japura "
  },
  "WIPT": {
    "lat": -0.7869169712,
    "long": 100.28099823,
    "name": "Minangkabau "
  },
  "WIPU": {
    "lat": -2.5418601036,
    "long": 101.0879974365,
    "name": "Muko Muko "
  },
  "WIPV": {
    "lat": -2.623529911,
    "long": 103.9550018311,
    "name": "Keluang "
  },
  "WIPY": {
    "lat": -2.434429884,
    "long": 104.0920028687,
    "name": "Bentayan "
  },
  "WITA": {
    "lat": 3.263420105,
    "long": 97.1837997437,
    "name": "Teuku Cut Ali "
  },
  "WITC": {
    "lat": 4.25,
    "long": 96.2170028687,
    "name": "Seunagan "
  },
  "WITG": {
    "lat": 2.4102799892,
    "long": 96.3255996704,
    "name": "Lasikin "
  },
  "WITL": {
    "lat": 5.0695099831,
    "long": 97.2592010498,
    "name": "Lhok Sukon "
  },
  "WITM": {
    "lat": 5.2266798019,
    "long": 96.950302124,
    "name": "Malikus Saleh "
  },
  "WITN": {
    "lat": 5.8741297722,
    "long": 95.3396987915,
    "name": "Maimun Saleh "
  },
  "WITS": {
    "lat": 3.75,
    "long": 96.6333312988,
    "name": "Seumayam "
  },
  "WITT": {
    "lat": 5.5235199928,
    "long": 95.4204025269,
    "name": "Sultan Iskandarmuda "
  },
  "WRBU": {
    "lat": -1.7325099707,
    "long": 114.8389968872,
    "name": "Buntok "
  },
  "WRKA": {
    "lat": -9.0730495453,
    "long": 124.9049987793,
    "name": "Haliwen "
  },
  "WRKB": {
    "lat": -8.808139801,
    "long": 120.9960021973,
    "name": "Padhameleda "
  },
  "WRKJ": {
    "lat": -9.183889389,
    "long": 124.5891647339,
    "name": "Mena "
  },
  "WRKL": {
    "lat": -8.3466596603,
    "long": 122.9810028076,
    "name": "Gewayentana "
  },
  "WRKM": {
    "lat": -8.2166671753,
    "long": 124.5666656494,
    "name": "Kalabahi "
  },
  "WRKN": {
    "lat": -9.495470047,
    "long": 123.7949981689,
    "name": "Naikliu "
  },
  "WRKR": {
    "lat": -10.7166671753,
    "long": 123.0666656494,
    "name": "Rote "
  },
  "WRKS": {
    "lat": -10.483300209,
    "long": 121.9000015259,
    "name": "Sawu "
  },
  "WRLA": {
    "lat": 0.5,
    "long": 117.3333587646,
    "name": "Sanggata "
  },
  "WRLB": {
    "lat": 3.867000103,
    "long": 115.6829986572,
    "name": "Long Bawan "
  },
  "WRLC": {
    "lat": 0.1196909994,
    "long": 117.474998474,
    "name": "Bontang "
  },
  "WRLF": {
    "lat": 4.1365299225,
    "long": 117.6669998169,
    "name": "Nunukan "
  },
  "WRLH": {
    "lat": -1.910130024,
    "long": 116.202003479,
    "name": "Tanah Grogot "
  },
  "WRLL": {
    "lat": -1.2666670084,
    "long": 116.8833312988,
    "name": "Balikpapan "
  },
  "WRLM": {
    "lat": -3.5527200699,
    "long": 116.6259994507,
    "name": "Malinau "
  },
  "WRLN": {
    "lat": 1.8141599894,
    "long": 114.8840026855,
    "name": "Long Mawang "
  },
  "WRLP": {
    "lat": 1.704486,
    "long": 114.970297,
    "name": "Long Apung "
  },
  "WRLU": {
    "lat": 1.0008900166,
    "long": 117.9960021973,
    "name": "Sangkulirang "
  },
  "WRLW": {
    "lat": 1.0328199863,
    "long": 116.9110031128,
    "name": "Muara Wahau "
  },
  "WRSP": {
    "lat": -7.2166671753,
    "long": 112.7166671753,
    "name": "Surabaya "
  }
}