{
    "00TN": {
        "lat": 35.5158996582,
        "long": -85.9535980225,
        "name": "Ragsdale Road ",
        "state": "Tennessee"
    },
    "01TN": {
        "lat": 34.9958992004,
        "long": -89.7305984497,
        "name": "Colonial Air Park",
        "state": "Tennessee"
    },
    "02TN": {
        "lat": 35.7806015015,
        "long": -86.584197998,
        "name": "Ellis Field",
        "state": "Tennessee"
    },
    "04TN": {
        "lat": 36.1833000183,
        "long": -82.6789016724,
        "name": "Hensley Airpark",
        "state": "Tennessee"
    },
    "06TN": {
        "lat": 35.6972999573,
        "long": -86.9569015503,
        "name": "Hunter STOLport",
        "state": "Tennessee"
    },
    "07TN": {
        "lat": 35.5685997009,
        "long": -84.2410964966,
        "name": "Corntassel ",
        "state": "Tennessee"
    },
    "0TN0": {
        "lat": 35.676700592,
        "long": -86.896697998,
        "name": "R & S Buzzard ",
        "state": "Tennessee"
    },
    "0TN2": {
        "lat": 35.6558990479,
        "long": -84.1855010986,
        "name": "Village ",
        "state": "Tennessee"
    },
    "0TN5": {
        "lat": 35.867401123,
        "long": -86.4978027344,
        "name": "Mc Donald ",
        "state": "Tennessee"
    },
    "0TN6": {
        "lat": 36.1833992004,
        "long": -84.0990982056,
        "name": "Riner Farm ",
        "state": "Tennessee"
    },
    "10TN": {
        "lat": 36.0718994141,
        "long": -86.3544006348,
        "name": "Flatwood Field",
        "state": "Tennessee"
    },
    "11TN": {
        "lat": 36.4749984741,
        "long": -87.3666992188,
        "name": "Salem Field",
        "state": "Tennessee"
    },
    "12TN": {
        "lat": 35.8236999512,
        "long": -84.5388031006,
        "name": "Riley Creek ",
        "state": "Tennessee"
    },
    "17TN": {
        "lat": 36.2994003296,
        "long": -82.6042022705,
        "name": "Murphy Field",
        "state": "Tennessee"
    },
    "19TN": {
        "lat": 36.4994010925,
        "long": -87.1902999878,
        "name": "Ferraraccio Field",
        "state": "Tennessee"
    },
    "1TN0": {
        "lat": 36.2463989258,
        "long": -86.3028030396,
        "name": "Cedar Crest Field",
        "state": "Tennessee"
    },
    "1TN2": {
        "lat": 36.4458999634,
        "long": -83.1123962402,
        "name": "Kay ",
        "state": "Tennessee"
    },
    "1TN3": {
        "lat": 35.1397018433,
        "long": -86.2221984863,
        "name": "Wagner Field",
        "state": "Tennessee"
    },
    "1TN6": {
        "lat": 35.9725990295,
        "long": -84.1568984985,
        "name": "Higdon Airfield",
        "state": "Tennessee"
    },
    "21TN": {
        "lat": 35.9852981567,
        "long": -83.0922012329,
        "name": "Ray's Stall ",
        "state": "Tennessee"
    },
    "2TN2": {
        "lat": 35.2235984802,
        "long": -89.1889038086,
        "name": "Wings Field",
        "state": "Tennessee"
    },
    "2TN4": {
        "lat": 35.3180999756,
        "long": -90.0353012085,
        "name": "Shoemaker-Shelby Forest ",
        "state": "Tennessee"
    },
    "2TN7": {
        "lat": 35.8044013977,
        "long": -84.415802002,
        "name": "Wolf Creek ",
        "state": "Tennessee"
    },
    "2TN8": {
        "lat": 36.0180015564,
        "long": -85.9359970093,
        "name": "Soggy Bottom ",
        "state": "Tennessee"
    },
    "36TN": {
        "lat": 36.4770011902,
        "long": -87.1398010254,
        "name": "Ruckman Field",
        "state": "Tennessee"
    },
    "38TN": {
        "lat": 36.6253013611,
        "long": -86.2733001709,
        "name": "Sugar Grove ",
        "state": "Tennessee"
    },
    "39TN": {
        "lat": 36.279722,
        "long": -88.043611,
        "name": "Big Sandy Airpark",
        "state": "Tennessee"
    },
    "3TN0": {
        "lat": 36.535,
        "long": -82.423889,
        "name": "Indian Springs ",
        "state": "Tennessee"
    },
    "3TN3": {
        "lat": 36.2633018494,
        "long": -88.7572021484,
        "name": "Wayne's World ",
        "state": "Tennessee"
    },
    "3TN4": {
        "lat": 35.8809013367,
        "long": -83.7270965576,
        "name": "Kenner Farm ",
        "state": "Tennessee"
    },
    "3TN6": {
        "lat": 35.0968017578,
        "long": -89.2806015015,
        "name": "Wilson Field",
        "state": "Tennessee"
    },
    "3TN8": {
        "lat": 35.763999939,
        "long": -84.1874008179,
        "name": "Massingale ",
        "state": "Tennessee"
    },
    "3TN9": {
        "lat": 36.6133003235,
        "long": -86.8103027344,
        "name": "Holenthawall ",
        "state": "Tennessee"
    },
    "41TN": {
        "lat": 35.9007987976,
        "long": -86.2071990967,
        "name": "Stonewall Airpark",
        "state": "Tennessee"
    },
    "42TN": {
        "lat": 36.411944,
        "long": -88.265556,
        "name": "Oliver Landing ",
        "state": "Tennessee"
    },
    "43TN": {
        "lat": 35.618056,
        "long": -86.0025,
        "name": "Roseanne ",
        "state": "Tennessee"
    },
    "44TN": {
        "lat": 35.84090042,
        "long": -84.07569885,
        "name": "Stone Field",
        "state": "Tennessee"
    },
    "45TN": {
        "lat": 36.5066986084,
        "long": -82.7117004395,
        "name": "Darnell's Landings ",
        "state": "Tennessee"
    },
    "4TN0": {
        "lat": 36.1519012451,
        "long": -83.7328033447,
        "name": "Melton Field",
        "state": "Tennessee"
    },
    "4TN2": {
        "lat": 35.8833999634,
        "long": -84.9688034058,
        "name": "Buck Creek Ranch ",
        "state": "Tennessee"
    },
    "4TN3": {
        "lat": 35.1183013916,
        "long": -89.3677978516,
        "name": "Hawks Nest ",
        "state": "Tennessee"
    },
    "4TN4": {
        "lat": 35.1899986267,
        "long": -89.6386032104,
        "name": "Cotton Field",
        "state": "Tennessee"
    },
    "4TN9": {
        "lat": 35.6108016968,
        "long": -88.6947021484,
        "name": "Southfork ",
        "state": "Tennessee"
    },
    "50TN": {
        "lat": 36.352339,
        "long": -88.350492,
        "name": "Paris Landing Airpark",
        "state": "Tennessee"
    },
    "51TN": {
        "lat": 35.5331001282,
        "long": -86.9768981934,
        "name": "Glendale Field",
        "state": "Tennessee"
    },
    "5TN4": {
        "lat": 35.6706008911,
        "long": -84.1157989502,
        "name": "Mcgraw's Backyard ",
        "state": "Tennessee"
    },
    "5TN9": {
        "lat": 36.113899231,
        "long": -85.5950012207,
        "name": "One Grand Field",
        "state": "Tennessee"
    },
    "65TN": {
        "lat": 36.3342018127,
        "long": -82.6616973877,
        "name": "Roach Farm ",
        "state": "Tennessee"
    },
    "6TN1": {
        "lat": 36.40620041,
        "long": -87.0821991,
        "name": "Weakleys Field",
        "state": "Tennessee"
    },
    "6TN4": {
        "lat": 35.4219017029,
        "long": -86.2902984619,
        "name": "The Aviation Valley ",
        "state": "Tennessee"
    },
    "6TN7": {
        "lat": 35.0238990784,
        "long": -89.2050018311,
        "name": "St. Somewhere ",
        "state": "Tennessee"
    },
    "6TN9": {
        "lat": 36.0614013672,
        "long": -87.2472000122,
        "name": "Dripping Springs Farm ",
        "state": "Tennessee"
    },
    "75TN": {
        "lat": 36.281389,
        "long": -82.861389,
        "name": "Srigley Field Airstrip",
        "state": "Tennessee"
    },
    "77TN": {
        "lat": 36.5092010498,
        "long": -82.6817016602,
        "name": "Darnell's Field",
        "state": "Tennessee"
    },
    "7TN0": {
        "lat": 36.4356002808,
        "long": -87.0914001465,
        "name": "Blue Bird Field",
        "state": "Tennessee"
    },
    "7TN1": {
        "lat": 35.3205986023,
        "long": -85.8535995483,
        "name": "Elk River Airfield",
        "state": "Tennessee"
    },
    "7TN3": {
        "lat": 35.9707984924,
        "long": -86.3930969238,
        "name": "Stones River ",
        "state": "Tennessee"
    },
    "7TN4": {
        "lat": 35.1727981567,
        "long": -89.5625,
        "name": "Pegasus Field",
        "state": "Tennessee"
    },
    "7TN5": {
        "lat": 35.133806,
        "long": -89.186806,
        "name": "Flying D ",
        "state": "Tennessee"
    },
    "80TN": {
        "lat": 35.8266983032,
        "long": -84.3300018311,
        "name": "Big T ",
        "state": "Tennessee"
    },
    "88TN": {
        "lat": 35.4245,
        "long": -85.779333,
        "name": "Piney Creek ",
        "state": "Tennessee"
    },
    "8TN1": {
        "lat": 35.1963996887,
        "long": -89.6268997192,
        "name": "Parker ",
        "state": "Tennessee"
    },
    "8TN2": {
        "lat": 35.3988990784,
        "long": -86.5539016724,
        "name": "Pleasant Grove Airpark",
        "state": "Tennessee"
    },
    "8TN3": {
        "lat": 35.8417015076,
        "long": -84.181098938,
        "name": "Raby Airpark",
        "state": "Tennessee"
    },
    "8TN4": {
        "lat": 36.2447013855,
        "long": -82.9689025879,
        "name": "Flaglor ",
        "state": "Tennessee"
    },
    "8TN5": {
        "lat": 36.4864006042,
        "long": -86.9111022949,
        "name": "Nobuzzn ",
        "state": "Tennessee"
    },
    "8TN6": {
        "lat": 35.9211006165,
        "long": -86.3447036743,
        "name": "Baker Field",
        "state": "Tennessee"
    },
    "8TN7": {
        "lat": 36.4007987976,
        "long": -87.9916992188,
        "name": "Short Creek ",
        "state": "Tennessee"
    },
    "8TN8": {
        "lat": 35.5416984558,
        "long": -89.8713989258,
        "name": "Field of Dreams Ultralightport",
        "state": "Tennessee"
    },
    "8TN9": {
        "lat": 35.5155982971,
        "long": -89.6778030396,
        "name": "Bull Run ",
        "state": "Tennessee"
    },
    "97TN": {
        "lat": 36.2785568902,
        "long": -82.5857627392,
        "name": "Kite Field",
        "state": "Tennessee"
    },
    "98TN": {
        "lat": 36.1425,
        "long": -83.604167,
        "name": "Landing At River'S Edge",
        "state": "Tennessee"
    },
    "9TN1": {
        "lat": 35.7299995422,
        "long": -86.5378036499,
        "name": "Versailles Aerodrome",
        "state": "Tennessee"
    },
    "9TN2": {
        "lat": 36.163898468,
        "long": -88.2052993774,
        "name": "Meadowlark ",
        "state": "Tennessee"
    },
    "9TN3": {
        "lat": 35.1136016846,
        "long": -89.5243988037,
        "name": "Mehrhoff Field",
        "state": "Tennessee"
    },
    "9TN4": {
        "lat": 36.457698822,
        "long": -86.9459991455,
        "name": "Foreman Field",
        "state": "Tennessee"
    },
    "9TN5": {
        "lat": 35.4583015442,
        "long": -86.9569015503,
        "name": "Askey Field",
        "state": "Tennessee"
    },
    "9TN7": {
        "lat": 35.5344009399,
        "long": -89.7350006104,
        "name": "Baskin ",
        "state": "Tennessee"
    },
    "9TN9": {
        "lat": 36.0194015503,
        "long": -86.2881011963,
        "name": "Toy Box ",
        "state": "Tennessee"
    },
    "AL03": {
        "lat": 35.853889,
        "long": -87.723889,
        "name": "Strickland/Smalley Field",
        "state": "Tennessee"
    },
    "K0A3": {
        "lat": 35.9852981567,
        "long": -85.8093032837,
        "name": "Smithville Municipal ",
        "state": "Tennessee"
    },
    "K0A4": {
        "lat": 36.3637008667,
        "long": -82.3089981079,
        "name": "Johnson City Stolport ",
        "state": "Tennessee"
    },
    "K0A9": {
        "lat": 36.3712005615,
        "long": -82.1733016968,
        "name": "Elizabethton Municipal ",
        "state": "Tennessee"
    },
    "K0M1": {
        "lat": 35.6377983093,
        "long": -88.1279983521,
        "name": "Scott Field",
        "state": "Tennessee"
    },
    "K0M2": {
        "lat": 36.4752998352,
        "long": -89.3461990356,
        "name": "Reelfoot Lake ",
        "state": "Tennessee"
    },
    "K0M3": {
        "lat": 35.5460014343,
        "long": -87.5972976685,
        "name": "John A Baker Field",
        "state": "Tennessee"
    },
    "K0M4": {
        "lat": 36.011100769,
        "long": -88.123298645,
        "name": "Benton County ",
        "state": "Tennessee"
    },
    "K0M5": {
        "lat": 36.1166000366,
        "long": -87.7381973267,
        "name": "Humphreys County ",
        "state": "Tennessee"
    },
    "K1A0": {
        "lat": 35.1875991821,
        "long": -85.177696228,
        "name": "Dallas Bay Sky Park ",
        "state": "Tennessee"
    },
    "K1A3": {
        "lat": 35.01620102,
        "long": -84.34629822,
        "name": "Martin Campbell Field",
        "state": "Tennessee"
    },
    "K1A7": {
        "lat": 36.4002990723,
        "long": -85.6417007446,
        "name": "Jackson County ",
        "state": "Tennessee"
    },
    "K1M5": {
        "lat": 36.5928001404,
        "long": -86.4766998291,
        "name": "Portland Municipal ",
        "state": "Tennessee"
    },
    "K2A0": {
        "lat": 35.4861984253,
        "long": -84.931098938,
        "name": "Mark Anton ",
        "state": "Tennessee"
    },
    "K2A1": {
        "lat": 36.3497009277,
        "long": -84.9467010498,
        "name": "Jamestown Municipal ",
        "state": "Tennessee"
    },
    "K2M2": {
        "lat": 35.2342987061,
        "long": -87.2578964233,
        "name": "Lawrenceburg Lawrence County ",
        "state": "Tennessee"
    },
    "K2M8": {
        "lat": 35.2789993286,
        "long": -89.9315032959,
        "name": "Charles W. Baker ",
        "state": "Tennessee"
    },
    "K3A2": {
        "lat": 36.4100990295,
        "long": -83.5554962158,
        "name": "New Tazewell Municipal ",
        "state": "Tennessee"
    },
    "K3M3": {
        "lat": 35.0430984497,
        "long": -85.0218963623,
        "name": "Collegedale Municipal ",
        "state": "Tennessee"
    },
    "K3M7": {
        "lat": 36.51839828,
        "long": -86.0582962,
        "name": "Lafayette Municipal ",
        "state": "Tennessee"
    },
    "K6A4": {
        "lat": 36.4178009033,
        "long": -81.8251037598,
        "name": "Johnson County ",
        "state": "Tennessee"
    },
    "K8A3": {
        "lat": 36.4121017456,
        "long": -85.3115997314,
        "name": "Livingston Municipal ",
        "state": "Tennessee"
    },
    "KAPT": {
        "lat": 35.0606994629,
        "long": -85.5852966309,
        "name": "Marion County Brown Field",
        "state": "Tennessee"
    },
    "KAYX": {
        "lat": 35.39260101,
        "long": -86.08580017,
        "name": "Arnold Air Force Base",
        "state": "Tennessee"
    },
    "KBGF": {
        "lat": 35.1775016785,
        "long": -86.0662002563,
        "name": "Winchester Municipal ",
        "state": "Tennessee"
    },
    "KBNA": {
        "lat": 36.1245002747,
        "long": -86.6781997681,
        "name": "Nashville International ",
        "state": "Tennessee"
    },
    "KCHA": {
        "lat": 35.0353012085,
        "long": -85.2037963867,
        "name": "Lovell Field",
        "state": "Tennessee"
    },
    "KCKV": {
        "lat": 36.6218986511,
        "long": -87.4150009155,
        "name": "Outlaw Field",
        "state": "Tennessee"
    },
    "KCSV": {
        "lat": 35.9513015747,
        "long": -85.0849990845,
        "name": "Crossville Memorial Whitson Field",
        "state": "Tennessee"
    },
    "KDKX": {
        "lat": 35.9639015198,
        "long": -83.8739013672,
        "name": "Knoxville Downtown Island ",
        "state": "Tennessee"
    },
    "KDYR": {
        "lat": 35.9980010986,
        "long": -89.4066009521,
        "name": "Dyersburg Regional ",
        "state": "Tennessee"
    },
    "KFYE": {
        "lat": 35.207698822,
        "long": -89.3945007324,
        "name": "Fayette County ",
        "state": "Tennessee"
    },
    "KFYM": {
        "lat": 35.0597000122,
        "long": -86.5640029907,
        "name": "Fayetteville Municipal ",
        "state": "Tennessee"
    },
    "KGCY": {
        "lat": 36.19300079,
        "long": -82.81510162,
        "name": "Greeneville Greene County Municipal ",
        "state": "Tennessee"
    },
    "KGHM": {
        "lat": 35.8373985291,
        "long": -87.4453964233,
        "name": "Centerville Municipal ",
        "state": "Tennessee"
    },
    "KGKT": {
        "lat": 35.85779953,
        "long": -83.5287017822,
        "name": "Gatlinburg Pigeon Forge ",
        "state": "Tennessee"
    },
    "KGZS": {
        "lat": 35.1537017822,
        "long": -87.0568008423,
        "name": "Abernathy Field",
        "state": "Tennessee"
    },
    "KHDI": {
        "lat": 35.2201004028,
        "long": -84.8323974609,
        "name": "Hardwick Field",
        "state": "Tennessee"
    },
    "KHZD": {
        "lat": 36.08929825,
        "long": -88.46330261,
        "name": "Carroll County ",
        "state": "Tennessee"
    },
    "KJAU": {
        "lat": 36.3345985413,
        "long": -84.1623001099,
        "name": "Campbell County ",
        "state": "Tennessee"
    },
    "KJWN": {
        "lat": 36.1823997498,
        "long": -86.8867034912,
        "name": "John C Tune ",
        "state": "Tennessee"
    },
    "KLUG": {
        "lat": 35.5069999695,
        "long": -86.8039016724,
        "name": "Ellington ",
        "state": "Tennessee"
    },
    "KM01": {
        "lat": 35.20069885,
        "long": -90.05400085,
        "name": "General Dewitt Spain ",
        "state": "Tennessee"
    },
    "KM02": {
        "lat": 36.1279983521,
        "long": -87.4298019409,
        "name": "Dickson Municipal ",
        "state": "Tennessee"
    },
    "KM04": {
        "lat": 35.5834007263,
        "long": -89.5871963501,
        "name": "Covington Municipal ",
        "state": "Tennessee"
    },
    "KM08": {
        "lat": 35.21450043,
        "long": -89.04340363,
        "name": "William L. Whitehurst Field",
        "state": "Tennessee"
    },
    "KM15": {
        "lat": 35.5957984924,
        "long": -87.876701355,
        "name": "Perry County ",
        "state": "Tennessee"
    },
    "KM29": {
        "lat": 35.3851013184,
        "long": -87.9674987793,
        "name": "Hassell Field",
        "state": "Tennessee"
    },
    "KM31": {
        "lat": 35.9034004211,
        "long": -89.3973007202,
        "name": "Arnold Field",
        "state": "Tennessee"
    },
    "KM33": {
        "lat": 36.37680054,
        "long": -86.40879822,
        "name": "Sumner County Regional ",
        "state": "Tennessee"
    },
    "KM52": {
        "lat": 35.6512985229,
        "long": -88.3788986206,
        "name": "Franklin Wilkins ",
        "state": "Tennessee"
    },
    "KM53": {
        "lat": 35.8022003174,
        "long": -88.8749008179,
        "name": "Humboldt Municipal ",
        "state": "Tennessee"
    },
    "KM54": {
        "lat": 36.19039917,
        "long": -86.31569672,
        "name": "Lebanon Municipal ",
        "state": "Tennessee"
    },
    "KM88": {
        "lat": 36.1902999878,
        "long": -86.6996994019,
        "name": "Cornelia Fort Airpark",
        "state": "Tennessee"
    },
    "KM91": {
        "lat": 36.53720093,
        "long": -86.92060089,
        "name": "Springfield Robertson County ",
        "state": "Tennessee"
    },
    "KM93": {
        "lat": 36.3166999817,
        "long": -87.9167022705,
        "name": "Houston County ",
        "state": "Tennessee"
    },
    "KMBT": {
        "lat": 35.87749863,
        "long": -86.37750244,
        "name": "Murfreesboro Municipal ",
        "state": "Tennessee"
    },
    "KMEM": {
        "lat": 35.0424003601,
        "long": -89.9766998291,
        "name": "Memphis International ",
        "state": "Tennessee"
    },
    "KMKL": {
        "lat": 35.59989929,
        "long": -88.91560364,
        "name": "Mc Kellar Sipes Regional ",
        "state": "Tennessee"
    },
    "KMMI": {
        "lat": 35.39730072,
        "long": -84.56259918,
        "name": "McMinn County ",
        "state": "Tennessee"
    },
    "KMNV": {
        "lat": 35.5453987122,
        "long": -84.3802032471,
        "name": "Monroe County ",
        "state": "Tennessee"
    },
    "KMOR": {
        "lat": 36.1794013977,
        "long": -83.37550354,
        "name": "Moore Murrell ",
        "state": "Tennessee"
    },
    "KMRC": {
        "lat": 35.5541000366,
        "long": -87.1789016724,
        "name": "Maury County ",
        "state": "Tennessee"
    },
    "KNQA": {
        "lat": 35.3567008972,
        "long": -89.870300293,
        "name": "Millington Regional Jetport ",
        "state": "Tennessee"
    },
    "KPHT": {
        "lat": 36.3381996155,
        "long": -88.3828964233,
        "name": "Henry County ",
        "state": "Tennessee"
    },
    "KPVE": {
        "lat": 35.6563987732,
        "long": -88.1953964233,
        "name": "Beech River Regional ",
        "state": "Tennessee"
    },
    "KRKW": {
        "lat": 35.9222984314,
        "long": -84.6896972656,
        "name": "Rockwood Municipal ",
        "state": "Tennessee"
    },
    "KRNC": {
        "lat": 35.69869995,
        "long": -85.84380341,
        "name": "Warren County Memorial ",
        "state": "Tennessee"
    },
    "KRVN": {
        "lat": 36.4575996399,
        "long": -82.8850021362,
        "name": "Hawkins County ",
        "state": "Tennessee"
    },
    "KRZR": {
        "lat": 35.2123364,
        "long": -84.7991994,
        "name": "Cleveland Regional Jetport C",
        "state": "Tennessee"
    },
    "KSCX": {
        "lat": 36.4556007385,
        "long": -84.5857009888,
        "name": "Scott Municipal ",
        "state": "Tennessee"
    },
    "KSNH": {
        "lat": 35.1703987122,
        "long": -88.2158966064,
        "name": "Savannah Hardin County ",
        "state": "Tennessee"
    },
    "KSRB": {
        "lat": 36.0559005737,
        "long": -85.5307006836,
        "name": "Upper Cumberland Regional ",
        "state": "Tennessee"
    },
    "KSYI": {
        "lat": 35.56010056,
        "long": -86.44249725,
        "name": "Bomar Field Shelbyville Municipal ",
        "state": "Tennessee"
    },
    "KSZY": {
        "lat": 35.2028999329,
        "long": -88.4983978271,
        "name": "Robert Sibley ",
        "state": "Tennessee"
    },
    "KTGC": {
        "lat": 35.9324989319,
        "long": -88.8488998413,
        "name": "Gibson County ",
        "state": "Tennessee"
    },
    "KTHA": {
        "lat": 35.38010025,
        "long": -86.24639893,
        "name": "Tullahoma Regional Arpt/Wm Northern Field",
        "state": "Tennessee"
    },
    "KTRI": {
        "lat": 36.4752006531,
        "long": -82.4074020386,
        "name": "Tri Cities Regional Tn Va ",
        "state": "Tennessee"
    },
    "KTYS": {
        "lat": 35.81100082,
        "long": -83.9940033,
        "name": "McGhee Tyson ",
        "state": "Tennessee"
    },
    "KUCY": {
        "lat": 36.38180161,
        "long": -88.98539734,
        "name": "Everett-Stewart Regional ",
        "state": "Tennessee"
    },
    "TN01": {
        "lat": 35.3473014832,
        "long": -89.8195037842,
        "name": "Ray ",
        "state": "Tennessee"
    },
    "TN07": {
        "lat": 35.6871986389,
        "long": -86.6063995361,
        "name": "Hawk Haven Airfield",
        "state": "Tennessee"
    },
    "TN08": {
        "lat": 36.0376014709,
        "long": -84.3069000244,
        "name": "Oliver Springs Inc ",
        "state": "Tennessee"
    },
    "TN09": {
        "lat": 35.7140007019,
        "long": -84.4110031128,
        "name": "Fergusons Flying Circus ",
        "state": "Tennessee"
    },
    "TN10": {
        "lat": 36.3390007019,
        "long": -83.7788009644,
        "name": "Lake View ",
        "state": "Tennessee"
    },
    "TN11": {
        "lat": 36.501499176,
        "long": -83.2555007935,
        "name": "Cantwell ",
        "state": "Tennessee"
    },
    "TN12": {
        "lat": 35.4735984802,
        "long": -86.6800003052,
        "name": "Hudgin Air ",
        "state": "Tennessee"
    },
    "TN13": {
        "lat": 35.3750991821,
        "long": -89.7667007446,
        "name": "Barret ",
        "state": "Tennessee"
    },
    "TN14": {
        "lat": 35.6897010803,
        "long": -86.6358032227,
        "name": "T-Top Airfield",
        "state": "Tennessee"
    },
    "TN16": {
        "lat": 35.9944992065,
        "long": -88.4611968994,
        "name": "Huntingdon ",
        "state": "Tennessee"
    },
    "TN17": {
        "lat": 35.5822982788,
        "long": -84.4879989624,
        "name": "Vintage Field",
        "state": "Tennessee"
    },
    "TN18": {
        "lat": 35.2042999268,
        "long": -89.6667022705,
        "name": "Richardson Strip",
        "state": "Tennessee"
    },
    "TN20": {
        "lat": 35.8117980957,
        "long": -83.774597168,
        "name": "Seymour Air Park Inc. ",
        "state": "Tennessee"
    },
    "TN21": {
        "lat": 35.4476013184,
        "long": -87.5061035156,
        "name": "Palmer Village-Napier Lake STOLport",
        "state": "Tennessee"
    },
    "TN23": {
        "lat": 36.4944000244,
        "long": -87.3218994141,
        "name": "Titan Field",
        "state": "Tennessee"
    },
    "TN24": {
        "lat": 35.3875999451,
        "long": -85.9625015259,
        "name": "Spencer Field",
        "state": "Tennessee"
    },
    "TN30": {
        "lat": 35.5471992493,
        "long": -84.5100021362,
        "name": "Cub Haven ",
        "state": "Tennessee"
    },
    "TN36": {
        "lat": 35.7620010376,
        "long": -89.5512008667,
        "name": "Flying I Ranch ",
        "state": "Tennessee"
    },
    "TN37": {
        "lat": 35.4042015076,
        "long": -89.0223007202,
        "name": "Anderson ",
        "state": "Tennessee"
    },
    "TN38": {
        "lat": 35.3718986511,
        "long": -86.2668991089,
        "name": "Rutledge Field",
        "state": "Tennessee"
    },
    "TN39": {
        "lat": 35.3055992126,
        "long": -86.2367019653,
        "name": "Amacher Strip",
        "state": "Tennessee"
    },
    "TN41": {
        "lat": 35.7728004456,
        "long": -84.765296936,
        "name": "100 Aker Wood ",
        "state": "Tennessee"
    },
    "TN43": {
        "lat": 35.0959014893,
        "long": -90.1139984131,
        "name": "Isle-A-Port STOLport",
        "state": "Tennessee"
    },
    "TN44": {
        "lat": 36.346698761,
        "long": -84.0121994019,
        "name": "Deerfield Resort ",
        "state": "Tennessee"
    },
    "TN47": {
        "lat": 35.2890014648,
        "long": -89.7412033081,
        "name": "Needham's ",
        "state": "Tennessee"
    },
    "TN48": {
        "lat": 36.2775993347,
        "long": -88.6537017822,
        "name": "Turner Field",
        "state": "Tennessee"
    },
    "TN50": {
        "lat": 34.9915008545,
        "long": -85.6508026123,
        "name": "Indian Hill Farm ",
        "state": "Tennessee"
    },
    "TN51": {
        "lat": 36.6427993774,
        "long": -86.9764022827,
        "name": "Aydelotte STOLport",
        "state": "Tennessee"
    },
    "TN52": {
        "lat": 35.1380996704,
        "long": -86.0811004639,
        "name": "King ",
        "state": "Tennessee"
    },
    "TN53": {
        "lat": 36.5559005737,
        "long": -87.4483032227,
        "name": "Parr Field",
        "state": "Tennessee"
    },
    "TN56": {
        "lat": 36.0722999573,
        "long": -85.113899231,
        "name": "Carey ",
        "state": "Tennessee"
    },
    "TN58": {
        "lat": 35.3917007446,
        "long": -89.65650177,
        "name": "Parsons Field",
        "state": "Tennessee"
    },
    "TN62": {
        "lat": 36.3722991943,
        "long": -82.3915023804,
        "name": "Mc Afee Stol Patch STOLport",
        "state": "Tennessee"
    },
    "TN64": {
        "lat": 35.5442008972,
        "long": -84.5327987671,
        "name": "West Wind Airpark",
        "state": "Tennessee"
    },
    "TN66": {
        "lat": 35.7444992065,
        "long": -85.047203064,
        "name": "Austin Field",
        "state": "Tennessee"
    },
    "TN67": {
        "lat": 35.2478981018,
        "long": -86.1286010742,
        "name": "Myers-Smith ",
        "state": "Tennessee"
    },
    "TN68": {
        "lat": 35.768699646,
        "long": -86.5466995239,
        "name": "Gibson STOLport",
        "state": "Tennessee"
    },
    "TN70": {
        "lat": 35.0261993408,
        "long": -89.7025985718,
        "name": "Burkeen Field",
        "state": "Tennessee"
    },
    "TN71": {
        "lat": 35.7944984436,
        "long": -84.3415985107,
        "name": "Cox Farm ",
        "state": "Tennessee"
    },
    "TN72": {
        "lat": 35.8459014893,
        "long": -83.4817962646,
        "name": "King ",
        "state": "Tennessee"
    },
    "TN73": {
        "lat": 36.3233985901,
        "long": -86.9593963623,
        "name": "Doc Jones Field",
        "state": "Tennessee"
    },
    "TN74": {
        "lat": 35.8000984192,
        "long": -84.3193969727,
        "name": "Will A Hildreth Farm ",
        "state": "Tennessee"
    },
    "TN77": {
        "lat": 36.32180023,
        "long": -87.15070343,
        "name": "Whifferdill ",
        "state": "Tennessee"
    },
    "TN79": {
        "lat": 36.1722984314,
        "long": -86.9597015381,
        "name": "Oakley ",
        "state": "Tennessee"
    },
    "TN80": {
        "lat": 36.2333984375,
        "long": -85.426399231,
        "name": "Schiff ",
        "state": "Tennessee"
    },
    "TN81": {
        "lat": 35.7489013672,
        "long": -86.8135986328,
        "name": "Shultz ",
        "state": "Tennessee"
    },
    "TN83": {
        "lat": 35.7223014832,
        "long": -86.2750015259,
        "name": "Cedar Glade Aerodrome",
        "state": "Tennessee"
    },
    "TN85": {
        "lat": 35.638999939,
        "long": -85.3972015381,
        "name": "Hogue ",
        "state": "Tennessee"
    },
    "TN86": {
        "lat": 35.7986984253,
        "long": -84.7632980347,
        "name": "Walden Ridge ",
        "state": "Tennessee"
    },
    "TN87": {
        "lat": 35.6926002502,
        "long": -83.9988021851,
        "name": "Montvale Airpark",
        "state": "Tennessee"
    },
    "TN89": {
        "lat": 35.2583999634,
        "long": -85.4526977539,
        "name": "Matthews ",
        "state": "Tennessee"
    },
    "TN93": {
        "lat": 35.2822990417,
        "long": -89.0291976929,
        "name": "Cotton Patch ",
        "state": "Tennessee"
    },
    "TN94": {
        "lat": 36.0010986328,
        "long": -84.0744018555,
        "name": "Robertson Farm ",
        "state": "Tennessee"
    },
    "TN96": {
        "lat": 36.0411987305,
        "long": -86.3582992554,
        "name": "Fall Creek Field",
        "state": "Tennessee"
    },
    "TN97": {
        "lat": 35.8069000244,
        "long": -86.612197876,
        "name": "Triune Airfield",
        "state": "Tennessee"
    },
    "TN98": {
        "lat": 35.8856010437,
        "long": -83.9577026367,
        "name": "Sky Ranch ",
        "state": "Tennessee"
    },
    "TN99": {
        "lat": 36.2963981628,
        "long": -82.760597229,
        "name": "Pensinger ",
        "state": "Tennessee"
    }
}