{
  "HRYG": {
    "lat": -1.6771999598,
    "long": 29.2588996887,
    "name": "Gisenyi "
  },
  "HRYI": {
    "lat": -2.5958299637,
    "long": 29.736700058,
    "name": "Butare "
  },
  "HRYN": {
    "lat": -2.3329999447,
    "long": 30.2000007629,
    "name": "Nemba "
  },
  "HRYO": {
    "lat": -1.5499999523,
    "long": 30.3829994202,
    "name": "Gabiro "
  },
  "HRYR": {
    "lat": -1.9686299563,
    "long": 30.1394996643,
    "name": "Kigali International "
  },
  "HRYU": {
    "lat": -1.5,
    "long": 29.6329994202,
    "name": "Ruhengeri "
  },
  "HRZA": {
    "lat": -2.4622399807,
    "long": 28.9078998566,
    "name": "Kamembe "
  }
}