{
    "00TS": {
        "lat": 32.6076011658,
        "long": -97.2419967651,
        "name": "Alpine Range ",
        "state": "Texas"
    },
    "00XS": {
        "lat": 33.0334014893,
        "long": -101.9339981079,
        "name": "L P Askew Farms ",
        "state": "Texas"
    },
    "01TE": {
        "lat": 32.7375984192,
        "long": -96.4280014038,
        "name": "Smith Field",
        "state": "Texas"
    },
    "01TX": {
        "lat": 32.3875999451,
        "long": -96.8775024414,
        "name": "Mims Farm Ultralightport",
        "state": "Texas"
    },
    "02TX": {
        "lat": 33.3704032898,
        "long": -101.92288208,
        "name": "The Palms At Kitty Hawk ",
        "state": "Texas"
    },
    "02XS": {
        "lat": 30.1476993561,
        "long": -97.6628036499,
        "name": "Seidel Ranch ",
        "state": "Texas"
    },
    "03TA": {
        "lat": 30.2626991272,
        "long": -96.5001983643,
        "name": "Gay Hill Farm ",
        "state": "Texas"
    },
    "03TE": {
        "lat": 27.4911003113,
        "long": -98.6695022583,
        "name": "Barronena Ranch ",
        "state": "Texas"
    },
    "03XS": {
        "lat": 31.3180999756,
        "long": -100.7539978027,
        "name": "Creekside ",
        "state": "Texas"
    },
    "04TX": {
        "lat": 31.7322006226,
        "long": -97.3688964844,
        "name": "Pocock ",
        "state": "Texas"
    },
    "05TA": {
        "lat": 29.8090991974,
        "long": -96.2650985718,
        "name": "Brandes Air Field",
        "state": "Texas"
    },
    "05TE": {
        "lat": 30.7220993042,
        "long": -97.7913970947,
        "name": "Hilde-Griff Field",
        "state": "Texas"
    },
    "05TS": {
        "lat": 33.1292991638,
        "long": -97.3585968018,
        "name": "Dew Drop ",
        "state": "Texas"
    },
    "05TX": {
        "lat": 32.1291999817,
        "long": -97.4041976929,
        "name": "Circle 'A' Ranch ",
        "state": "Texas"
    },
    "06TA": {
        "lat": 30.9085006714,
        "long": -97.116897583,
        "name": "Glaser Field",
        "state": "Texas"
    },
    "06TE": {
        "lat": 30.3127002716,
        "long": -95.0269012451,
        "name": "Ainsworth ",
        "state": "Texas"
    },
    "06TS": {
        "lat": 32.1207008362,
        "long": -96.1791000366,
        "name": "Roscoe Mc Connico ",
        "state": "Texas"
    },
    "06TX": {
        "lat": 30.0576000214,
        "long": -95.8128967285,
        "name": "Diamond N Ranch ",
        "state": "Texas"
    },
    "06R": {
        "lat": 29.9409722222,
        "long": -96.24525,
        "name": "Grawunder Field ",
        "state": "Texas"
    },
    "06XS": {
        "lat": 33.3246994019,
        "long": -97.0441970825,
        "name": "Campbell Field",
        "state": "Texas"
    },
    "07TA": {
        "lat": 29.2404994965,
        "long": -95.3447036743,
        "name": "Salaika Aviation ",
        "state": "Texas"
    },
    "07TE": {
        "lat": 27.7210998535,
        "long": -97.512802124,
        "name": "Cuddihy Field",
        "state": "Texas"
    },
    "07TS": {
        "lat": 30.625,
        "long": -97.5727996826,
        "name": "Cross-Country Estates ",
        "state": "Texas"
    },
    "08TE": {
        "lat": 29.9759998322,
        "long": -98.743598938,
        "name": "B. J. Mc Combs Sisterdale ",
        "state": "Texas"
    },
    "08TS": {
        "lat": 26.8878002167,
        "long": -98.5072021484,
        "name": "Puesta Del Sol ",
        "state": "Texas"
    },
    "08TX": {
        "lat": 32.8582000732,
        "long": -97.7474975586,
        "name": "Cross Wind ",
        "state": "Texas"
    },
    "08XS": {
        "lat": 29.1081008911,
        "long": -95.7774963379,
        "name": "Peterson ",
        "state": "Texas"
    },
    "09TA": {
        "lat": 33.2821006775,
        "long": -97.4970016479,
        "name": "Lazy G Bar Ranch ",
        "state": "Texas"
    },
    "09TE": {
        "lat": 32.2667999268,
        "long": -97.8669967651,
        "name": "Running M Ranch ",
        "state": "Texas"
    },
    "09TS": {
        "lat": 29.4824008942,
        "long": -103.1650009155,
        "name": "Pitcock Rosillos Mountain Ranch ",
        "state": "Texas"
    },
    "09TX": {
        "lat": 30.7390995026,
        "long": -102.0240020752,
        "name": "Smokey Mtn Ranch ",
        "state": "Texas"
    },
    "0TA1": {
        "lat": 34.2195014954,
        "long": -101.9800033569,
        "name": "Buddy Harmel ",
        "state": "Texas"
    },
    "0TA2": {
        "lat": 34.2167015076,
        "long": -101.9250030518,
        "name": "Smith Farms ",
        "state": "Texas"
    },
    "0TA3": {
        "lat": 30.3043003082,
        "long": -102.1380004883,
        "name": "Tate Ranch ",
        "state": "Texas"
    },
    "0TA4": {
        "lat": 32.4978981018,
        "long": -96.2705001831,
        "name": "Erco Field",
        "state": "Texas"
    },
    "0TA7": {
        "lat": 30.1481990814,
        "long": -103.8929977417,
        "name": "Alta Vista Ranch ",
        "state": "Texas"
    },
    "0TA8": {
        "lat": 33.8487014771,
        "long": -95.4072036743,
        "name": "Womack Plantation ",
        "state": "Texas"
    },
    "0TE0": {
        "lat": 29.6930007935,
        "long": -101.1620025635,
        "name": "Robertson Ranch ",
        "state": "Texas"
    },
    "0TE3": {
        "lat": 33.9291992188,
        "long": -100.8420028687,
        "name": "Buzz Field",
        "state": "Texas"
    },
    "0TE4": {
        "lat": 31.0809993744,
        "long": -96.2152023315,
        "name": "Hilltop Lakes ",
        "state": "Texas"
    },
    "0TE5": {
        "lat": 27.4337997437,
        "long": -99.1858978271,
        "name": "Santa Maria Ranch ",
        "state": "Texas"
    },
    "0TE6": {
        "lat": 32.2042999268,
        "long": -98.6656036377,
        "name": "Gorman ",
        "state": "Texas"
    },
    "0TE7": {
        "lat": 30.2518005371,
        "long": -98.6224975586,
        "name": "Lbj Ranch ",
        "state": "Texas"
    },
    "0TS0": {
        "lat": 33.0228996277,
        "long": -97.1224975586,
        "name": "Flower Mound ",
        "state": "Texas"
    },
    "0TS1": {
        "lat": 33.0987014771,
        "long": -97.2724990845,
        "name": "Dooley ",
        "state": "Texas"
    },
    "0TS2": {
        "lat": 32.9486999512,
        "long": -97.3289031982,
        "name": "Ultralight International Ultralightport",
        "state": "Texas"
    },
    "0TS4": {
        "lat": 30.0918998718,
        "long": -96.7949981689,
        "name": "Ullrich ",
        "state": "Texas"
    },
    "0TS5": {
        "lat": 30.4419002533,
        "long": -95.1863021851,
        "name": "Lake Bay Gall ",
        "state": "Texas"
    },
    "0TS7": {
        "lat": 32.8334999084,
        "long": -98.1252975464,
        "name": "Flying U ",
        "state": "Texas"
    },
    "0TS8": {
        "lat": 26.1504001617,
        "long": -97.8835983276,
        "name": "Flying 'K' Ranch Ultralightport",
        "state": "Texas"
    },
    "0TS9": {
        "lat": 30.015499115,
        "long": -97.737197876,
        "name": "Jim Roach Field",
        "state": "Texas"
    },
    "0TX0": {
        "lat": 32.4196014404,
        "long": -97.7127990723,
        "name": "Nassau Bay ",
        "state": "Texas"
    },
    "0TX1": {
        "lat": 32.3540000916,
        "long": -97.676399231,
        "name": "Pecan Plantation ",
        "state": "Texas"
    },
    "0TX5": {
        "lat": 33.0239982605,
        "long": -97.1196975708,
        "name": "Shiloh ",
        "state": "Texas"
    },
    "0TX6": {
        "lat": 29.5051994324,
        "long": -97.9969024658,
        "name": "Elm Creek Airpark",
        "state": "Texas"
    },
    "0TX7": {
        "lat": 32.9500999451,
        "long": -97.1502990723,
        "name": "Lazy K Acres ",
        "state": "Texas"
    },
    "0TX8": {
        "lat": 33.1804008484,
        "long": -96.043296814,
        "name": "Jacobia Field",
        "state": "Texas"
    },
    "0TX9": {
        "lat": 33.2500991821,
        "long": -96.116897583,
        "name": "Card Aerodrome",
        "state": "Texas"
    },
    "0XA4": {
        "lat": 27.9969005585,
        "long": -98.8822021484,
        "name": "Seven C's Ranch ",
        "state": "Texas"
    },
    "0XA5": {
        "lat": 28.6849002838,
        "long": -98.3827972412,
        "name": "74 Ranch ",
        "state": "Texas"
    },
    "0XA7": {
        "lat": 30.66270065,
        "long": -97.62509918,
        "name": "Bar 3 Ranch ",
        "state": "Texas"
    },
    "0XA8": {
        "lat": 30.2700004578,
        "long": -98.1082992554,
        "name": "Ohho ",
        "state": "Texas"
    },
    "0XS0": {
        "lat": 28.4002990723,
        "long": -99.5587005615,
        "name": "Diamond H Ranch ",
        "state": "Texas"
    },
    "0XS1": {
        "lat": 29.2877998352,
        "long": -96.3497009277,
        "name": "Rodgers Roost ",
        "state": "Texas"
    },
    "0XS2": {
        "lat": 30.5548992157,
        "long": -100.533996582,
        "name": "John Fields Ranch ",
        "state": "Texas"
    },
    "0XS6": {
        "lat": 30.5009994507,
        "long": -98.1470031738,
        "name": "Lakeside Beach ",
        "state": "Texas"
    },
    "0XS7": {
        "lat": 29.1919002533,
        "long": -100.2750015259,
        "name": "Anacacho Ranch ",
        "state": "Texas"
    },
    "0XS8": {
        "lat": 29.0760993958,
        "long": -100.375,
        "name": "Dunbar Ranch ",
        "state": "Texas"
    },
    "0XS9": {
        "lat": 32.134042,
        "long": -95.339583,
        "name": "French Field",
        "state": "Texas"
    },
    "10TE": {
        "lat": 29.6669006348,
        "long": -97.5002975464,
        "name": "Gottwald Field",
        "state": "Texas"
    },
    "10TS": {
        "lat": 29.5524997711,
        "long": -98.1031036377,
        "name": "Saint's Strip Ultralightport",
        "state": "Texas"
    },
    "10XS": {
        "lat": 31.779499054,
        "long": -98.9093017578,
        "name": "Flying S Air Ranch ",
        "state": "Texas"
    },
    "11TE": {
        "lat": 32.3000984192,
        "long": -97.204498291,
        "name": "Flying M Ranch ",
        "state": "Texas"
    },
    "11TS": {
        "lat": 31.6578998566,
        "long": -96.4113998413,
        "name": "Pt Enterprise D&W Ranch ",
        "state": "Texas"
    },
    "11TX": {
        "lat": 33.6668014526,
        "long": -96.6905975342,
        "name": "Butler ",
        "state": "Texas"
    },
    "12TE": {
        "lat": 31.3167991638,
        "long": -99.2337036133,
        "name": "Curtis Ranch Field",
        "state": "Texas"
    },
    "12TS": {
        "lat": 32.9085006714,
        "long": -97.9773025513,
        "name": "Blo ",
        "state": "Texas"
    },
    "12TX": {
        "lat": 30.8213996887,
        "long": -98.0805969238,
        "name": "Griffin ",
        "state": "Texas"
    },
    "13TE": {
        "lat": 30.6560001373,
        "long": -96.5382995605,
        "name": "Varisco ",
        "state": "Texas"
    },
    "13TS": {
        "lat": 27.4552993774,
        "long": -98.926399231,
        "name": "Van Es Ranch ",
        "state": "Texas"
    },
    "13TX": {
        "lat": 30.5312995911,
        "long": -100.4509963989,
        "name": "Allison Ranch ",
        "state": "Texas"
    },
    "14TA": {
        "lat": 29.8985996246,
        "long": -98.4030990601,
        "name": "Dean Ranch ",
        "state": "Texas"
    },
    "14TE": {
        "lat": 30.9167995453,
        "long": -99.4837036133,
        "name": "Smith I-Ranch ",
        "state": "Texas"
    },
    "14TS": {
        "lat": 27.4216995239,
        "long": -98.6044998169,
        "name": "O S Wyatt ",
        "state": "Texas"
    },
    "14TX": {
        "lat": 30.2894001007,
        "long": -98.1738967896,
        "name": "Keyes Ranch ",
        "state": "Texas"
    },
    "14XA": {
        "lat": 33.6578884021,
        "long": -96.7882847786,
        "name": "Sherman (Frog Pond) ",
        "state": "Texas"
    },
    "14XS": {
        "lat": 30.8085002899,
        "long": -97.2739028931,
        "name": "Isbell Ranch ",
        "state": "Texas"
    },
    "15TA": {
        "lat": 30.2544002533,
        "long": -99.9469985962,
        "name": "J R Ranch ",
        "state": "Texas"
    },
    "15TX": {
        "lat": 32.3042984009,
        "long": -98.325302124,
        "name": "Ed Shadle ",
        "state": "Texas"
    },
    "15XS": {
        "lat": 29.3327007294,
        "long": -95.3340988159,
        "name": "Toy Airpark",
        "state": "Texas"
    },
    "16TA": {
        "lat": 30.9197006226,
        "long": -103.7829971313,
        "name": "Seven Springs ",
        "state": "Texas"
    },
    "16TE": {
        "lat": 32.6976013184,
        "long": -95.2077026367,
        "name": "Holly Lake Ranch ",
        "state": "Texas"
    },
    "16TS": {
        "lat": 32.2226982117,
        "long": -95.3180007935,
        "name": "Pineridge STOLport",
        "state": "Texas"
    },
    "16TX": {
        "lat": 32.263999939,
        "long": -98.1072998047,
        "name": "Ratliff ",
        "state": "Texas"
    },
    "16XS": {
        "lat": 30.404367,
        "long": -95.35985,
        "name": "Outlaw Flyers ",
        "state": "Texas"
    },
    "17TE": {
        "lat": 29.9291000366,
        "long": -98.9402999878,
        "name": "Comfort Airpark",
        "state": "Texas"
    },
    "17TX": {
        "lat": 32.4486999512,
        "long": -98.2549972534,
        "name": "Kimzey ",
        "state": "Texas"
    },
    "17XA": {
        "lat": 32.017778,
        "long": -95.7969444445,
        "name": "Jacksonville / Hunter Field",
        "state": "Texas"
    },
    "17XS": {
        "lat": 32.1777992249,
        "long": -98.4349975586,
        "name": "Quahadi Ranch ",
        "state": "Texas"
    },
    "18TA": {
        "lat": 30.1362991333,
        "long": -99.7436981201,
        "name": "West Kerr Ranch ",
        "state": "Texas"
    },
    "18TE": {
        "lat": 32.5852012634,
        "long": -95.0639038086,
        "name": "Alert Field",
        "state": "Texas"
    },
    "18TX": {
        "lat": 32.9524993896,
        "long": -96.2281036377,
        "name": "Flying 'T' Ranch ",
        "state": "Texas"
    },
    "18XS": {
        "lat": 33.8000984192,
        "long": -101.033996582,
        "name": "Gardner Farm ",
        "state": "Texas"
    },
    "19TA": {
        "lat": 32.8222999573,
        "long": -96.4169006348,
        "name": "Lagrone Ranch ",
        "state": "Texas"
    },
    "19TE": {
        "lat": 30.3169002533,
        "long": -95.3335037231,
        "name": "Cut and Shoot ",
        "state": "Texas"
    },
    "19TX": {
        "lat": 31.238199234,
        "long": -97.5141983032,
        "name": "Woody Mc Clellan Ranch ",
        "state": "Texas"
    },
    "19XS": {
        "lat": 32.2971992493,
        "long": -97.0868988037,
        "name": "Draggintail Acres ",
        "state": "Texas"
    },
    "1TA2": {
        "lat": 34.650100708,
        "long": -101.5,
        "name": "Vigo Park ",
        "state": "Texas"
    },
    "1TA4": {
        "lat": 31.4584999084,
        "long": -95.2960968018,
        "name": "Last Resort ",
        "state": "Texas"
    },
    "1TA5": {
        "lat": 32.9417991638,
        "long": -103,
        "name": "Two Leggs ",
        "state": "Texas"
    },
    "1TA7": {
        "lat": 32.6160011292,
        "long": -95.8683013916,
        "name": "Thompson Field",
        "state": "Texas"
    },
    "1TE0": {
        "lat": 34.2695007324,
        "long": -102.7170028687,
        "name": "Locker Brothers ",
        "state": "Texas"
    },
    "1TE1": {
        "lat": 28.2502994537,
        "long": -99.8170013428,
        "name": "Briscoes Catarina Ranch ",
        "state": "Texas"
    },
    "1TE2": {
        "lat": 29.9862995148,
        "long": -95.0168991089,
        "name": "Flying F Ranch ",
        "state": "Texas"
    },
    "1TE3": {
        "lat": 31.9174003601,
        "long": -95.2071990967,
        "name": "Bolton ",
        "state": "Texas"
    },
    "1TE4": {
        "lat": 29.4955005646,
        "long": -98.1577987671,
        "name": "Zuehl ",
        "state": "Texas"
    },
    "1TE5": {
        "lat": 30.8162994385,
        "long": -96.6010971069,
        "name": "Corpora ",
        "state": "Texas"
    },
    "1TE6": {
        "lat": 35.1180992126,
        "long": -102.1849975586,
        "name": "Moore ",
        "state": "Texas"
    },
    "1TE7": {
        "lat": 29.121099472,
        "long": -98.3656005859,
        "name": "Ray Farm ",
        "state": "Texas"
    },
    "1TE8": {
        "lat": 33.5489997864,
        "long": -96.5582962036,
        "name": "Kahuna Bay ",
        "state": "Texas"
    },
    "1TE9": {
        "lat": 31.271900177,
        "long": -96.439201355,
        "name": "Rmr Ranch ",
        "state": "Texas"
    },
    "1TS0": {
        "lat": 29.6704998016,
        "long": -94.6707992554,
        "name": "Eagle Air ",
        "state": "Texas"
    },
    "1TS1": {
        "lat": 29.9127006531,
        "long": -95.994102478,
        "name": "Laas Farm ",
        "state": "Texas"
    },
    "1TS2": {
        "lat": 31.824300766,
        "long": -96.778503418,
        "name": "Bar 16 ",
        "state": "Texas"
    },
    "1TS3": {
        "lat": 29.496099472,
        "long": -94.9505004883,
        "name": "B & S Ultralightport",
        "state": "Texas"
    },
    "1TS6": {
        "lat": 28.2693996429,
        "long": -99.9345016479,
        "name": "Dentonio Ranch ",
        "state": "Texas"
    },
    "1TS8": {
        "lat": 32.2876014709,
        "long": -100.7220001221,
        "name": "Landers Ranch ",
        "state": "Texas"
    },
    "1TS9": {
        "lat": 33.368056,
        "long": -96.752778,
        "name": "Four Winds ",
        "state": "Texas"
    },
    "1TX0": {
        "lat": 29.2533340454,
        "long": -98.861114502,
        "name": "Lytle Airpark",
        "state": "Texas"
    },
    "1TX1": {
        "lat": 31.8556995392,
        "long": -98.4141998291,
        "name": "Yoakum ",
        "state": "Texas"
    },
    "1TX2": {
        "lat": 33.7168006897,
        "long": -100.1500015259,
        "name": "J Y Ranch-R B Masterson Iii Estate ",
        "state": "Texas"
    },
    "1TX3": {
        "lat": 33.4250984192,
        "long": -100.5419998169,
        "name": "Beggs Ranch ",
        "state": "Texas"
    },
    "1TX4": {
        "lat": 30.4286003113,
        "long": -97.9704971313,
        "name": "Shoreline Ranch ",
        "state": "Texas"
    },
    "1TX5": {
        "lat": 34.1291999817,
        "long": -101.908996582,
        "name": "Laney Farm ",
        "state": "Texas"
    },
    "1TX6": {
        "lat": 31.6984996796,
        "long": -98.0963973999,
        "name": "Muxworthy ",
        "state": "Texas"
    },
    "1TX7": {
        "lat": 32.8056983948,
        "long": -100.1839981079,
        "name": "Killion Ranch ",
        "state": "Texas"
    },
    "1TX8": {
        "lat": 34.3694992065,
        "long": -102.0839996338,
        "name": "Hart Aerial ",
        "state": "Texas"
    },
    "1TX9": {
        "lat": 32.6375999451,
        "long": -95.1613006592,
        "name": "Hawk Ranch ",
        "state": "Texas"
    },
    "1XA0": {
        "lat": 30.79369926,
        "long": -97.90119934,
        "name": "Rab Ranch ",
        "state": "Texas"
    },
    "1XA1": {
        "lat": 33.6477012634,
        "long": -97.8290023804,
        "name": "Sky Acres ",
        "state": "Texas"
    },
    "1XA2": {
        "lat": 28.4349994659,
        "long": -97.6517028809,
        "name": "Chase Field Industrial ",
        "state": "Texas"
    },
    "1XA4": {
        "lat": 29.8738002777,
        "long": -96.0044021606,
        "name": "Mikeska Field",
        "state": "Texas"
    },
    "1XA5": {
        "lat": 30.1350002289,
        "long": -97.1428985596,
        "name": "Flying Armadillo Field",
        "state": "Texas"
    },
    "1XA6": {
        "lat": 33.4737014771,
        "long": -97.1223983765,
        "name": "Tailwheel Acres ",
        "state": "Texas"
    },
    "1XA7": {
        "lat": 29.7334003448,
        "long": -96.0591964722,
        "name": "Gloster Aerodrome",
        "state": "Texas"
    },
    "1XA8": {
        "lat": 32.2324981689,
        "long": -96.3974990845,
        "name": "Hackberry ",
        "state": "Texas"
    },
    "1XS0": {
        "lat": 29.9223995209,
        "long": -98.4809036255,
        "name": "Double U Ranch ",
        "state": "Texas"
    },
    "1XS1": {
        "lat": 29.9382991791,
        "long": -95.0466003418,
        "name": "Dunham Field",
        "state": "Texas"
    },
    "1XS2": {
        "lat": 30.3808002472,
        "long": -97.4274978638,
        "name": "Skye Dance ",
        "state": "Texas"
    },
    "1XS4": {
        "lat": 30.4535007477,
        "long": -97.2555007935,
        "name": "Barton Field",
        "state": "Texas"
    },
    "1XS7": {
        "lat": 29.4501991272,
        "long": -102.8320007324,
        "name": "Heath Canyon ",
        "state": "Texas"
    },
    "1XS8": {
        "lat": 29.6340999603,
        "long": -100.3740005493,
        "name": "Pinon Ranch ",
        "state": "Texas"
    },
    "1XS9": {
        "lat": 28.3955993652,
        "long": -98.2208023071,
        "name": "Beefmaster's Best ",
        "state": "Texas"
    },
    "20TA": {
        "lat": 33.559167,
        "long": -96.409444,
        "name": "Mag Drop ",
        "state": "Texas"
    },
    "20TE": {
        "lat": 32.1959991455,
        "long": -97.0892028809,
        "name": "Reece Ranch ",
        "state": "Texas"
    },
    "20TS": {
        "lat": 29.8099002838,
        "long": -99.0680999756,
        "name": "Bains Private ",
        "state": "Texas"
    },
    "20XS": {
        "lat": 32.8353996277,
        "long": -96.3779983521,
        "name": "Klutts Field",
        "state": "Texas"
    },
    "21TE": {
        "lat": 30.0126991272,
        "long": -94.9241027832,
        "name": "Seaberg Ranch ",
        "state": "Texas"
    },
    "21TX": {
        "lat": 33.4995994568,
        "long": -94.0943984985,
        "name": "Shilling's ",
        "state": "Texas"
    },
    "21XS": {
        "lat": 29.5196990967,
        "long": -95.2751998901,
        "name": "Houston Airpark",
        "state": "Texas"
    },
    "22TA": {
        "lat": 29.341299057,
        "long": -98.6596984863,
        "name": "Standard Industries ",
        "state": "Texas"
    },
    "22TE": {
        "lat": 29.1933002472,
        "long": -96.6891021729,
        "name": "Fenner Ranch ",
        "state": "Texas"
    },
    "22XS": {
        "lat": 31.3710002899,
        "long": -97.6669998169,
        "name": "Longhorn Aux Landing Strip",
        "state": "Texas"
    },
    "23TA": {
        "lat": 33.4873008728,
        "long": -96.4558029175,
        "name": "Rowland R Airfield",
        "state": "Texas"
    },
    "23TS": {
        "lat": 29.422700882,
        "long": -100.7389984131,
        "name": "Bertani Ranch ",
        "state": "Texas"
    },
    "23TX": {
        "lat": 31.2495994568,
        "long": -97.5227966309,
        "name": "The Grove/Ranch ",
        "state": "Texas"
    },
    "23XS": {
        "lat": 31.3586006165,
        "long": -97.6710968018,
        "name": "Shorthorn Aux Landing Strip",
        "state": "Texas"
    },
    "24TA": {
        "lat": 31.2131996155,
        "long": -95.8274993896,
        "name": "Moore Ranch ",
        "state": "Texas"
    },
    "24TX": {
        "lat": 32.5000991821,
        "long": -98.3836975098,
        "name": "Thurber Lake ",
        "state": "Texas"
    },
    "24XA": {
        "lat": 29.320969,
        "long": -98.370294,
        "name": "Cross-B ",
        "state": "Texas"
    },
    "25TA": {
        "lat": 29.83659935,
        "long": -94.9673995972,
        "name": "Ferris ",
        "state": "Texas"
    },
    "25TE": {
        "lat": 32.4500999451,
        "long": -97.4002990723,
        "name": "Taylor's Air Park",
        "state": "Texas"
    },
    "25TS": {
        "lat": 36.0917015076,
        "long": -102.4160003662,
        "name": "Miller Airfield",
        "state": "Texas"
    },
    "25TX": {
        "lat": 31.3127994537,
        "long": -94.6443023682,
        "name": "Hubbard ",
        "state": "Texas"
    },
    "25XA": {
        "lat": 30.098869,
        "long": -98.704617,
        "name": "Headwaters ",
        "state": "Texas"
    },
    "25XS": {
        "lat": 32.4864997864,
        "long": -96.8463973999,
        "name": "O'Brien Airpark",
        "state": "Texas"
    },
    "26TX": {
        "lat": 33.7648010254,
        "long": -100.0179977417,
        "name": "Lowrance Ranch ",
        "state": "Texas"
    },
    "26XS": {
        "lat": 30.1140995026,
        "long": -98.4614028931,
        "name": "Tatum Ranch ",
        "state": "Texas"
    },
    "27XA": {
        "lat": 32.979389,
        "long": -97.889917,
        "name": "Arnett Landing ",
        "state": "Texas"
    },
    "27XS": {
        "lat": 29.8379993439,
        "long": -95.9494018555,
        "name": "Sport Flyers ",
        "state": "Texas"
    },
    "28TA": {
        "lat": 27.83359909,
        "long": -98.71700287,
        "name": "Duval County Ranch Co ",
        "state": "Texas"
    },
    "28TE": {
        "lat": 29.2682991028,
        "long": -98.3369979858,
        "name": "Midlake ",
        "state": "Texas"
    },
    "28TS": {
        "lat": 32.904800415,
        "long": -97.5950012207,
        "name": "Boe-Wrinkle ",
        "state": "Texas"
    },
    "28TX": {
        "lat": 34.085899353,
        "long": -99.4551010132,
        "name": "Lehman ",
        "state": "Texas"
    },
    "28XS": {
        "lat": 32.6459999084,
        "long": -96.325302124,
        "name": "Flying G ",
        "state": "Texas"
    },
    "29TA": {
        "lat": 33.873053,
        "long": -98.645906,
        "name": "Cactus Hill ",
        "state": "Texas"
    },
    "29TX": {
        "lat": 34.0945014954,
        "long": -99.3656005859,
        "name": "Lockett ",
        "state": "Texas"
    },
    "2TA1": {
        "lat": 31.3901996613,
        "long": -94.6910018921,
        "name": "Gravco STOLport",
        "state": "Texas"
    },
    "2TA3": {
        "lat": 31.7182006836,
        "long": -104.5979995728,
        "name": "Triangle Ranch Private ",
        "state": "Texas"
    },
    "2TA4": {
        "lat": 29.7476997375,
        "long": -96.2927017212,
        "name": "Mario's Flying Pizza ",
        "state": "Texas"
    },
    "2TA6": {
        "lat": 31.8626995087,
        "long": -96.1975021362,
        "name": "Pyramid Ranch ",
        "state": "Texas"
    },
    "2TA8": {
        "lat": 26.85840034,
        "long": -98.22200012,
        "name": "El Coyote Ranch ",
        "state": "Texas"
    },
    "2TA9": {
        "lat": 32.6604003906,
        "long": -97.8420028687,
        "name": "A M I G O For Christ ",
        "state": "Texas"
    },
    "2TE0": {
        "lat": 28.9822006226,
        "long": -95.5796966553,
        "name": "Eagle Air Park",
        "state": "Texas"
    },
    "2TE2": {
        "lat": 32.8306999207,
        "long": -97.5335998535,
        "name": "Flying Oaks ",
        "state": "Texas"
    },
    "2TE3": {
        "lat": 33.2942008972,
        "long": -96.9281005859,
        "name": "Weems Farm ",
        "state": "Texas"
    },
    "2TE4": {
        "lat": 29.1791992188,
        "long": -96.3227005005,
        "name": "Frels ",
        "state": "Texas"
    },
    "2TE5": {
        "lat": 29.6951007843,
        "long": -97.1632995605,
        "name": "Piano Ranch ",
        "state": "Texas"
    },
    "2TE6": {
        "lat": 28.8878002167,
        "long": -98.0503005981,
        "name": "Burris Ranch ",
        "state": "Texas"
    },
    "2TE7": {
        "lat": 33.228167,
        "long": -101.13535,
        "name": "Beach Ranch ",
        "state": "Texas"
    },
    "2TE8": {
        "lat": 28.6783008575,
        "long": -99.7986984253,
        "name": "Wagner-Braxdale ",
        "state": "Texas"
    },
    "2TS0": {
        "lat": 33.1557006836,
        "long": -97.1380996704,
        "name": "Myska Field",
        "state": "Texas"
    },
    "2TS2": {
        "lat": 26.1683998108,
        "long": -97.7335968018,
        "name": "Shofner Farms ",
        "state": "Texas"
    },
    "2TS3": {
        "lat": 31.6793003082,
        "long": -97.2406005859,
        "name": "Tigerbird Field",
        "state": "Texas"
    },
    "2TS4": {
        "lat": 32.1397018433,
        "long": -95.9702987671,
        "name": "Circle R Ranch ",
        "state": "Texas"
    },
    "2TS5": {
        "lat": 34.893699646,
        "long": -100.6100006104,
        "name": "Hedley ",
        "state": "Texas"
    },
    "2TS6": {
        "lat": 32.5125999451,
        "long": -96.9266967773,
        "name": "Eagle's Nest Estates ",
        "state": "Texas"
    },
    "2TS8": {
        "lat": 29.220500946,
        "long": -97.8716964722,
        "name": "Bailey ",
        "state": "Texas"
    },
    "2TX0": {
        "lat": 35.0644989014,
        "long": -101.8489990234,
        "name": "Blue Sky Airfield",
        "state": "Texas"
    },
    "2TX1": {
        "lat": 29.2252006531,
        "long": -98.3835983276,
        "name": "Russell Paradise ",
        "state": "Texas"
    },
    "2TX2": {
        "lat": 32.0265007019,
        "long": -98.0100021362,
        "name": "Ray Smith Farm ",
        "state": "Texas"
    },
    "2TX3": {
        "lat": 29.2168998718,
        "long": -100.6169967651,
        "name": "La Fonda Ranch ",
        "state": "Texas"
    },
    "2TX4": {
        "lat": 27.9836006165,
        "long": -99.376701355,
        "name": "Lewis Ranch ",
        "state": "Texas"
    },
    "2TX5": {
        "lat": 31.4535007477,
        "long": -97.7514038086,
        "name": "Berry ",
        "state": "Texas"
    },
    "2TX6": {
        "lat": 33.6818008423,
        "long": -101.6679992676,
        "name": "Everitt ",
        "state": "Texas"
    },
    "2TX7": {
        "lat": 33.0946006775,
        "long": -97.3961029053,
        "name": "Jw ",
        "state": "Texas"
    },
    "2TX8": {
        "lat": 33.3082008362,
        "long": -97.379699707,
        "name": "Eagle's Landing ",
        "state": "Texas"
    },
    "2XA0": {
        "lat": 33.9793014526,
        "long": -99.7128982544,
        "name": "Foard County ",
        "state": "Texas"
    },
    "2XA1": {
        "lat": 28.1324005127,
        "long": -98.9321975708,
        "name": "El Caballero ",
        "state": "Texas"
    },
    "2XA2": {
        "lat": 29.2203998566,
        "long": -95.3108978271,
        "name": "Knape ",
        "state": "Texas"
    },
    "2XA4": {
        "lat": 33.5807991028,
        "long": -96.8003005981,
        "name": "Flying S Ranch ",
        "state": "Texas"
    },
    "2XA5": {
        "lat": 29.8036994934,
        "long": -97.6912002563,
        "name": "Someday Ranch ",
        "state": "Texas"
    },
    "2XA7": {
        "lat": 32.6150016785,
        "long": -94.7656021118,
        "name": "Tailwheel ",
        "state": "Texas"
    },
    "2XS1": {
        "lat": 30.2196998596,
        "long": -98.3025970459,
        "name": "Harris Ranch ",
        "state": "Texas"
    },
    "2XS2": {
        "lat": 28.2628002167,
        "long": -100.162002563,
        "name": "Indio-Faith ",
        "state": "Texas"
    },
    "2XS3": {
        "lat": 32.0167999268,
        "long": -95.7002029419,
        "name": "Glad Oaks ",
        "state": "Texas"
    },
    "2XS4": {
        "lat": 33.6613998413,
        "long": -96.4064025879,
        "name": "Skida Patch ",
        "state": "Texas"
    },
    "2XS5": {
        "lat": 30.0104999542,
        "long": -98.4253005981,
        "name": "Cross Triangle Ranch ",
        "state": "Texas"
    },
    "2XS6": {
        "lat": 29.7210998535,
        "long": -99.5711975098,
        "name": "Foster Ranch ",
        "state": "Texas"
    },
    "2XS7": {
        "lat": 29.4501991272,
        "long": -99.6837005615,
        "name": "Annandale Ranch ",
        "state": "Texas"
    },
    "2XS8": {
        "lat": 29.2294006348,
        "long": -99.8238983154,
        "name": "Benson Airstrip",
        "state": "Texas"
    },
    "30TA": {
        "lat": 30.5918998718,
        "long": -97.7225036621,
        "name": "Tri-Modal Air Park",
        "state": "Texas"
    },
    "30TE": {
        "lat": 33.8111991882,
        "long": -101.3960037231,
        "name": "Cone ",
        "state": "Texas"
    },
    "30TS": {
        "lat": 32.8284988403,
        "long": -94.7188034058,
        "name": "Hall ",
        "state": "Texas"
    },
    "30TX": {
        "lat": 26.1355991364,
        "long": -97.6947021484,
        "name": "Farmer's Co-Op ",
        "state": "Texas"
    },
    "30XS": {
        "lat": 34.3823013306,
        "long": -103.0179977417,
        "name": "Farwell Spraying Service Inc ",
        "state": "Texas"
    },
    "31TA": {
        "lat": 30.7294006348,
        "long": -97.4253005981,
        "name": "Vitek Field",
        "state": "Texas"
    },
    "31TS": {
        "lat": 33.1903991699,
        "long": -96.1891021729,
        "name": "Flyers Field",
        "state": "Texas"
    },
    "31TX": {
        "lat": 31.5967998505,
        "long": -97.3300018311,
        "name": "Scott ",
        "state": "Texas"
    },
    "31XS": {
        "lat": 33.1837005615,
        "long": -96.2703018188,
        "name": "Fly-N-Ski ",
        "state": "Texas"
    },
    "32TA": {
        "lat": 29.6919002533,
        "long": -97.4336013794,
        "name": "Wilbourn Ranch ",
        "state": "Texas"
    },
    "32TE": {
        "lat": 30.5893993378,
        "long": -98.370300293,
        "name": "Granite Shoals Municipal ",
        "state": "Texas"
    },
    "32TX": {
        "lat": 30.0580997467,
        "long": -96.3591995239,
        "name": "Hinson ",
        "state": "Texas"
    },
    "33TA": {
        "lat": 30.3330001831,
        "long": -95.612197876,
        "name": "Lake Bonanza ",
        "state": "Texas"
    },
    "34TA": {
        "lat": 33.167098999,
        "long": -96.487197876,
        "name": "Jsi ",
        "state": "Texas"
    },
    "34TE": {
        "lat": 32.2321014404,
        "long": -97.0085983276,
        "name": "Bee Creek ",
        "state": "Texas"
    },
    "34TS": {
        "lat": 29.9158000946,
        "long": -98.2474975586,
        "name": "Canyon Lake ",
        "state": "Texas"
    },
    "34XS": {
        "lat": 30.391944,
        "long": -95.538611,
        "name": "Flying Hare ",
        "state": "Texas"
    },
    "35TS": {
        "lat": 30.1215991974,
        "long": -96.0866012573,
        "name": "Hempstead Gliderport",
        "state": "Texas"
    },
    "35TX": {
        "lat": 32.4840011597,
        "long": -99.8255996704,
        "name": "Flying B Ranch Airstrip",
        "state": "Texas"
    },
    "36TX": {
        "lat": 33.7209014893,
        "long": -96.8613967896,
        "name": "Bevoni-Flying B ",
        "state": "Texas"
    },
    "36XS": {
        "lat": 33.8777008057,
        "long": -97.7297973633,
        "name": "Flying F ",
        "state": "Texas"
    },
    "37TE": {
        "lat": 29.360200882,
        "long": -95.0099029541,
        "name": "Johnnie Volk Field",
        "state": "Texas"
    },
    "37TS": {
        "lat": 32.9906997681,
        "long": -96.0400009155,
        "name": "Skinner ",
        "state": "Texas"
    },
    "37TX": {
        "lat": 31.3215999603,
        "long": -98.8656005859,
        "name": "Yates Field",
        "state": "Texas"
    },
    "37XS": {
        "lat": 32.0001983643,
        "long": -97.4169998169,
        "name": "Lake Whitney Country Club ",
        "state": "Texas"
    },
    "38XS": {
        "lat": 26.8152008057,
        "long": -98.4793014526,
        "name": "San Rafael Ranch ",
        "state": "Texas"
    },
    "39TA": {
        "lat": 33.6525993347,
        "long": -95.6557998657,
        "name": "Flying Tigers ",
        "state": "Texas"
    },
    "39TE": {
        "lat": 32.7182006836,
        "long": -102.737998962,
        "name": "Seminole Spraying Service ",
        "state": "Texas"
    },
    "3TA0": {
        "lat": 30.0969009399,
        "long": -100.4049987793,
        "name": "Four Square Ranch ",
        "state": "Texas"
    },
    "3TA1": {
        "lat": 30.0366001129,
        "long": -98.6975021362,
        "name": "Diamond K Ranch ",
        "state": "Texas"
    },
    "3TA2": {
        "lat": 29.7366008759,
        "long": -96.0641021729,
        "name": "Clark Sky Ranch ",
        "state": "Texas"
    },
    "3TA4": {
        "lat": 31.4857997894,
        "long": -98.9760971069,
        "name": "Tin Top Ranch ",
        "state": "Texas"
    },
    "3TA5": {
        "lat": 30.122467,
        "long": -98.374783,
        "name": "Blanco Landing ",
        "state": "Texas"
    },
    "3TA6": {
        "lat": 29.5419006348,
        "long": -100.2529983521,
        "name": "Spring Ranch ",
        "state": "Texas"
    },
    "3TA7": {
        "lat": 33.143699646,
        "long": -97.8044967651,
        "name": "Jim Sears ",
        "state": "Texas"
    },
    "3TA8": {
        "lat": 28.7196998596,
        "long": -100.0550003052,
        "name": "Picosa Ranch ",
        "state": "Texas"
    },
    "3TA9": {
        "lat": 28.7085990906,
        "long": -100.0070037842,
        "name": "Chacon Creek Ranch ",
        "state": "Texas"
    },
    "3TE0": {
        "lat": 30.7315998077,
        "long": -96.1311035156,
        "name": "K Ranch ",
        "state": "Texas"
    },
    "3TE1": {
        "lat": 29.9515991211,
        "long": -94.9044036865,
        "name": "Gum Island ",
        "state": "Texas"
    },
    "3TE3": {
        "lat": 29.4696006775,
        "long": -103.93699646,
        "name": "Big Bend Ranch State Park ",
        "state": "Texas"
    },
    "3TE4": {
        "lat": 30.0088005066,
        "long": -104.6650009155,
        "name": "Hot Springs ",
        "state": "Texas"
    },
    "3TE5": {
        "lat": 35.3306007385,
        "long": -101.3850021362,
        "name": "Stamps Field",
        "state": "Texas"
    },
    "3TE6": {
        "lat": 35.5699996948,
        "long": -101.1689987183,
        "name": "Skellytown ",
        "state": "Texas"
    },
    "3TE7": {
        "lat": 30.2418994904,
        "long": -101.4169998169,
        "name": "Mills Ranch ",
        "state": "Texas"
    },
    "3TE8": {
        "lat": 29.3194007874,
        "long": -103.5839996338,
        "name": "Terlingua ",
        "state": "Texas"
    },
    "3TE9": {
        "lat": 30.1058006287,
        "long": -94.9588012695,
        "name": "Pinoak ",
        "state": "Texas"
    },
    "3TS0": {
        "lat": 32.5084991455,
        "long": -94.7002029419,
        "name": "East Side ",
        "state": "Texas"
    },
    "3TS1": {
        "lat": 30.0114002228,
        "long": -98.0404968262,
        "name": "White Wings ",
        "state": "Texas"
    },
    "3TS3": {
        "lat": 29.3747005463,
        "long": -95.2904968262,
        "name": "J-D Ranch ",
        "state": "Texas"
    },
    "3TS5": {
        "lat": 29.4710998535,
        "long": -95.8862991333,
        "name": "Purdy-Nielsen Memorial Airpark",
        "state": "Texas"
    },
    "3TS7": {
        "lat": 30.0210990906,
        "long": -94.9459991455,
        "name": "Pavlat ",
        "state": "Texas"
    },
    "3TS9": {
        "lat": 33.3792991638,
        "long": -95.6035995483,
        "name": "Oak Glen Ranch ",
        "state": "Texas"
    },
    "3TX1": {
        "lat": 32.0917015076,
        "long": -95.4447021484,
        "name": "Paradise Point ",
        "state": "Texas"
    },
    "3TX2": {
        "lat": 33.0806999207,
        "long": -97.3488998413,
        "name": "Flying S Farm ",
        "state": "Texas"
    },
    "3TX3": {
        "lat": 33.1195983887,
        "long": -97.3197021484,
        "name": "Sitton Field",
        "state": "Texas"
    },
    "3TX4": {
        "lat": 33.0946006775,
        "long": -97.3803024292,
        "name": "Willow Run ",
        "state": "Texas"
    },
    "3TX5": {
        "lat": 29.371099472,
        "long": -98.2316970825,
        "name": "Mc Creless Farm ",
        "state": "Texas"
    },
    "3TX6": {
        "lat": 32.233481,
        "long": -97.380849,
        "name": "Lowell Smith Jr ",
        "state": "Texas"
    },
    "3TX7": {
        "lat": 33.1408004761,
        "long": -97.3711013794,
        "name": "Flying P ",
        "state": "Texas"
    },
    "3TX8": {
        "lat": 33.1250991821,
        "long": -97.3460998535,
        "name": "Drop Field",
        "state": "Texas"
    },
    "3TX9": {
        "lat": 32.5275993347,
        "long": -97.2807998657,
        "name": "Rafter J ",
        "state": "Texas"
    },
    "3XA0": {
        "lat": 32.313889,
        "long": -97.231111,
        "name": "Drennan ",
        "state": "Texas"
    },
    "3XA1": {
        "lat": 33.47395,
        "long": -97.169267,
        "name": "Hardy Field",
        "state": "Texas"
    },
    "3XA7": {
        "lat": 30.890817,
        "long": -99.006183,
        "name": "Eagle Rock Ranch ",
        "state": "Texas"
    },
    "3XA8": {
        "lat": 32.514167,
        "long": -97.595278,
        "name": "Chicken Strip",
        "state": "Texas"
    },
    "3XS0": {
        "lat": 33.2685012817,
        "long": -97.0710983276,
        "name": "Hartlee Field",
        "state": "Texas"
    },
    "3XS1": {
        "lat": 28.76720047,
        "long": -96.3069000244,
        "name": "Kubecka Aviation ",
        "state": "Texas"
    },
    "3XS4": {
        "lat": 30.1343994141,
        "long": -93.9359970093,
        "name": "Jenkins ",
        "state": "Texas"
    },
    "3XS5": {
        "lat": 29.2980003357,
        "long": -98.6766967773,
        "name": "Star Smith Field",
        "state": "Texas"
    },
    "3XS8": {
        "lat": 30.1308002472,
        "long": -95.9001998901,
        "name": "Ken Ada Ranch ",
        "state": "Texas"
    },
    "40TA": {
        "lat": 31.3129997253,
        "long": -96.2204971313,
        "name": "Miles Field",
        "state": "Texas"
    },
    "40TE": {
        "lat": 30.789100647,
        "long": -97.6549987793,
        "name": "Sybert Farm ",
        "state": "Texas"
    },
    "40TS": {
        "lat": 31.7723999023,
        "long": -97.1322021484,
        "name": "Square K ",
        "state": "Texas"
    },
    "40XS": {
        "lat": 30.517999649,
        "long": -97.7806015015,
        "name": "Breakaway Park ",
        "state": "Texas"
    },
    "41TA": {
        "lat": 32.2375984192,
        "long": -97.8780975342,
        "name": "Circle P Ranch ",
        "state": "Texas"
    },
    "41TS": {
        "lat": 33.3783988953,
        "long": -96.4483032227,
        "name": "Flying T Ranch ",
        "state": "Texas"
    },
    "41TX": {
        "lat": 33.3748016357,
        "long": -96.0821990967,
        "name": "Henington ",
        "state": "Texas"
    },
    "41XS": {
        "lat": 30.539100647,
        "long": -97.4188995361,
        "name": "Macho Grande ",
        "state": "Texas"
    },
    "42TE": {
        "lat": 28.8878002167,
        "long": -97.0211029053,
        "name": "Ball ",
        "state": "Texas"
    },
    "42TX": {
        "lat": 33.3167991638,
        "long": -96.0669021606,
        "name": "Magee ",
        "state": "Texas"
    },
    "42XS": {
        "lat": 27.957444,
        "long": -98.403889,
        "name": "Temple Ranch ",
        "state": "Texas"
    },
    "43TA": {
        "lat": 32.0251998901,
        "long": -97.6264038086,
        "name": "Diamond Seven Ranch ",
        "state": "Texas"
    },
    "43TS": {
        "lat": 32.5662002563,
        "long": -95.4682998657,
        "name": "Fraser Farm ",
        "state": "Texas"
    },
    "43TX": {
        "lat": 26.1530990601,
        "long": -98.1350021362,
        "name": "Mid-Valley Dusters Inc ",
        "state": "Texas"
    },
    "44TE": {
        "lat": 30.6835002899,
        "long": -98.4169998169,
        "name": "Shirley Williams ",
        "state": "Texas"
    },
    "44TS": {
        "lat": 30.5776996613,
        "long": -98.8337020874,
        "name": "Mc David Ranch ",
        "state": "Texas"
    },
    "44TX": {
        "lat": 30.2105007172,
        "long": -99.0948028564,
        "name": "White Oak ",
        "state": "Texas"
    },
    "45TE": {
        "lat": 33.1917991638,
        "long": -97.325302124,
        "name": "Deussen Field",
        "state": "Texas"
    },
    "45TX": {
        "lat": 31.7523994446,
        "long": -97.0982971191,
        "name": "West Airpark",
        "state": "Texas"
    },
    "45XS": {
        "lat": 28.1403007507,
        "long": -98.912902832,
        "name": "Ghost Apache ",
        "state": "Texas"
    },
    "46TA": {
        "lat": 28.1261005402,
        "long": -98.859703064,
        "name": "Gould Strip",
        "state": "Texas"
    },
    "46TE": {
        "lat": 29.8749008179,
        "long": -103.6969985962,
        "name": "02 Ranch ",
        "state": "Texas"
    },
    "46TS": {
        "lat": 33.128200531,
        "long": -96.5096969604,
        "name": "Lavon North ",
        "state": "Texas"
    },
    "46TX": {
        "lat": 29.150800705,
        "long": -95.4952011108,
        "name": "Phillips Corporation ",
        "state": "Texas"
    },
    "46XS": {
        "lat": 33.3111991882,
        "long": -97.1044998169,
        "name": "Windy Hill ",
        "state": "Texas"
    },
    "47TA": {
        "lat": 33.2560005188,
        "long": -96.8852996826,
        "name": "Pleasure Field",
        "state": "Texas"
    },
    "47TE": {
        "lat": 28.8516998291,
        "long": -96.4974975586,
        "name": "Whites ",
        "state": "Texas"
    },
    "47TS": {
        "lat": 31.0480003357,
        "long": -95.9177017212,
        "name": "Hensarling ",
        "state": "Texas"
    },
    "47TX": {
        "lat": 26.9339008331,
        "long": -97.7624969482,
        "name": "Armstrong Ranch ",
        "state": "Texas"
    },
    "47XS": {
        "lat": 33.4724998474,
        "long": -101.7850036621,
        "name": "Bartos Farm ",
        "state": "Texas"
    },
    "48TE": {
        "lat": 30.021,
        "long": -101.573056,
        "name": "4M Ranch Airfield",
        "state": "Texas"
    },
    "48TS": {
        "lat": 29.6676998138,
        "long": -98.1988983154,
        "name": "Fox ",
        "state": "Texas"
    },
    "48TX": {
        "lat": 33.4542999268,
        "long": -96.3815994263,
        "name": "Tri-County Aerodrome",
        "state": "Texas"
    },
    "48XS": {
        "lat": 29.9265995026,
        "long": -103.2949981689,
        "name": "Maravillas Gap Ranch ",
        "state": "Texas"
    },
    "49TA": {
        "lat": 29.8966007233,
        "long": -95.0174026489,
        "name": "Roeder ",
        "state": "Texas"
    },
    "49TE": {
        "lat": 30.0576992035,
        "long": -99.512802124,
        "name": "Stowers Ranch ",
        "state": "Texas"
    },
    "49XS": {
        "lat": 31.448333,
        "long": -98.321111,
        "name": "McCasland Ranch ",
        "state": "Texas"
    },
    "4TA0": {
        "lat": 29.3554992676,
        "long": -95.6638031006,
        "name": "Massimiliano Memorial Field",
        "state": "Texas"
    },
    "4TA1": {
        "lat": 33.302898407,
        "long": -97.1113967896,
        "name": "Warschun Ranch ",
        "state": "Texas"
    },
    "4TA3": {
        "lat": 32.8987007141,
        "long": -98.4600982666,
        "name": "Costello Island Inc ",
        "state": "Texas"
    },
    "4TA4": {
        "lat": 29.9391002655,
        "long": -96.0597000122,
        "name": "Pea Patch ",
        "state": "Texas"
    },
    "4TA5": {
        "lat": 33.8526000977,
        "long": -98.6462020874,
        "name": "Lucky G ",
        "state": "Texas"
    },
    "4TA6": {
        "lat": 30.0223999023,
        "long": -99.3836975098,
        "name": "Comanche Caves Ranch ",
        "state": "Texas"
    },
    "4TA8": {
        "lat": 30.6168003082,
        "long": -101.016998291,
        "name": "Perry Ranch ",
        "state": "Texas"
    },
    "4TE0": {
        "lat": 32.9334983826,
        "long": -94.7334976196,
        "name": "Lone Star Steel Company ",
        "state": "Texas"
    },
    "4TE1": {
        "lat": 36.266998291,
        "long": -100.5350036621,
        "name": "Figure 1 Ranch ",
        "state": "Texas"
    },
    "4TE2": {
        "lat": 29.5440998077,
        "long": -100.672996521,
        "name": "Lewis Private ",
        "state": "Texas"
    },
    "4TE3": {
        "lat": 35.1166992188,
        "long": -101.4420013428,
        "name": "Finley Ranch ",
        "state": "Texas"
    },
    "4TE4": {
        "lat": 29.6210002899,
        "long": -103.6790008545,
        "name": "Taurus Mesa ",
        "state": "Texas"
    },
    "4TE6": {
        "lat": 30.0627002716,
        "long": -94.9474029541,
        "name": "Jamison Airstrip",
        "state": "Texas"
    },
    "4TE7": {
        "lat": 29.7408008575,
        "long": -100.9649963379,
        "name": "Devil's River Ranch ",
        "state": "Texas"
    },
    "4TE8": {
        "lat": 30.3209991455,
        "long": -94.0735015869,
        "name": "Ben Bruce Memorial Airpark",
        "state": "Texas"
    },
    "4TE9": {
        "lat": 29.2640991211,
        "long": -99.3506011963,
        "name": "Squirrel Creek Ranch ",
        "state": "Texas"
    },
    "4TS5": {
        "lat": 30.2219009399,
        "long": -99.4983978271,
        "name": "Goebel Field",
        "state": "Texas"
    },
    "4TS7": {
        "lat": 30.4501991272,
        "long": -102.9270019531,
        "name": "Allison Ranch ",
        "state": "Texas"
    },
    "4TS8": {
        "lat": 29.375,
        "long": -99.3420028687,
        "name": "Glasscock Field",
        "state": "Texas"
    },
    "4TX0": {
        "lat": 29.8635997772,
        "long": -94.8343963623,
        "name": "Slack ",
        "state": "Texas"
    },
    "4TX2": {
        "lat": 32.9668006897,
        "long": -97.2335968018,
        "name": "Stage Coach Hills ",
        "state": "Texas"
    },
    "4TX3": {
        "lat": 33.6612014771,
        "long": -95.8336029053,
        "name": "Forest Hill ",
        "state": "Texas"
    },
    "4TX4": {
        "lat": 32.6278991699,
        "long": -97.1920013428,
        "name": "Birk ",
        "state": "Texas"
    },
    "4TX5": {
        "lat": 32.2299003601,
        "long": -96.2596969604,
        "name": "Hancock ",
        "state": "Texas"
    },
    "4TX6": {
        "lat": 32.4127006531,
        "long": -94.8182983398,
        "name": "Kilgore ",
        "state": "Texas"
    },
    "4TX7": {
        "lat": 33.4194984436,
        "long": -99.8656005859,
        "name": "Oliver ",
        "state": "Texas"
    },
    "4TX8": {
        "lat": 33.2486991882,
        "long": -97.2238998413,
        "name": "Addington Field",
        "state": "Texas"
    },
    "4XA2": {
        "lat": 28.789167,
        "long": -97.763389,
        "name": "Card Airfield",
        "state": "Texas"
    },
    "4XA3": {
        "lat": 32.253611,
        "long": -99.498611,
        "name": "Owen Field",
        "state": "Texas"
    },
    "4XA4": {
        "lat": 30.734958,
        "long": -97.143378,
        "name": "Apache Pass ",
        "state": "Texas"
    },
    "4XA5": {
        "lat": 34.03775,
        "long": -98.496,
        "name": "4-Shipp ",
        "state": "Texas"
    },
    "4XS0": {
        "lat": 29.9297008514,
        "long": -95.9641036987,
        "name": "Pfeffer & Son Farms ",
        "state": "Texas"
    },
    "4XS1": {
        "lat": 32.1338996887,
        "long": -96.5205993652,
        "name": "Coyote Field",
        "state": "Texas"
    },
    "4XS2": {
        "lat": 33.1706008911,
        "long": -97.7316970825,
        "name": "Teate Field",
        "state": "Texas"
    },
    "4XS5": {
        "lat": 31.1219005585,
        "long": -93.8030014038,
        "name": "Scrappin Valley ",
        "state": "Texas"
    },
    "4XS6": {
        "lat": 30.3918991089,
        "long": -98.6613998413,
        "name": "H Young Ranch ",
        "state": "Texas"
    },
    "4XS8": {
        "lat": 29.9668998718,
        "long": -98.1169967651,
        "name": "Winn Ranch ",
        "state": "Texas"
    },
    "4XS9": {
        "lat": 30.0960006714,
        "long": -98.1628036499,
        "name": "Garnett Ranch ",
        "state": "Texas"
    },
    "50TA": {
        "lat": 29.6877002716,
        "long": -97.9961013794,
        "name": "Moltz ",
        "state": "Texas"
    },
    "50TE": {
        "lat": 30.2304992676,
        "long": -98.4753036499,
        "name": "Keller Ranch ",
        "state": "Texas"
    },
    "50TX": {
        "lat": 30.1375999451,
        "long": -98.5253982544,
        "name": "Kennedy Ranch ",
        "state": "Texas"
    },
    "50XS": {
        "lat": 29.0433006287,
        "long": -100.5849990845,
        "name": "Hughes Ranch ",
        "state": "Texas"
    },
    "51TE": {
        "lat": 32.470192,
        "long": -97.787119,
        "name": "Barstool Ranch ",
        "state": "Texas"
    },
    "51TX": {
        "lat": 32.5396003723,
        "long": -95.668296814,
        "name": "N D Ranch ",
        "state": "Texas"
    },
    "52TA": {
        "lat": 33.4640007019,
        "long": -96.3503036499,
        "name": "Red Wing ",
        "state": "Texas"
    },
    "52TE": {
        "lat": 30.5168991089,
        "long": -99.516998291,
        "name": "Robinson Ranch ",
        "state": "Texas"
    },
    "52TS": {
        "lat": 30.4185009003,
        "long": -98.1628036499,
        "name": "Fall Creek Air Ranch STOLport",
        "state": "Texas"
    },
    "53TA": {
        "lat": 34.1543006897,
        "long": -99.2641983032,
        "name": "Shivers Private ",
        "state": "Texas"
    },
    "53TS": {
        "lat": 33.4840011597,
        "long": -96.8392028809,
        "name": "Bridges Field",
        "state": "Texas"
    },
    "53TX": {
        "lat": 29.2161006927,
        "long": -98.5494995117,
        "name": "Cannon Field",
        "state": "Texas"
    },
    "53XS": {
        "lat": 26.148399353,
        "long": -97.5916976929,
        "name": "Kornegay Private ",
        "state": "Texas"
    },
    "54TA": {
        "lat": 32.2997016907,
        "long": -96.873298645,
        "name": "George P Shanks ",
        "state": "Texas"
    },
    "54TE": {
        "lat": 30.5151996613,
        "long": -97.2668991089,
        "name": "Camelot ",
        "state": "Texas"
    },
    "54TS": {
        "lat": 32.8111991882,
        "long": -99.8517990112,
        "name": "J Bar Wc Ranch ",
        "state": "Texas"
    },
    "54TX": {
        "lat": 30.677400589,
        "long": -98.5252990723,
        "name": "Flying H Ranch ",
        "state": "Texas"
    },
    "55TE": {
        "lat": 29.230278,
        "long": -98.35,
        "name": "Lebegue Lsa Landing",
        "state": "Texas"
    },
    "55TX": {
        "lat": 30.1121997833,
        "long": -94.2563018799,
        "name": "Stonecipher ",
        "state": "Texas"
    },
    "55XS": {
        "lat": 29.1662998199,
        "long": -100.4179992676,
        "name": "Frontier ",
        "state": "Texas"
    },
    "56TE": {
        "lat": 29.7294006348,
        "long": -95.8497009277,
        "name": "Cardiff Brothers ",
        "state": "Texas"
    },
    "56TS": {
        "lat": 30.3376998901,
        "long": -97.3503036499,
        "name": "Elgin Intracontinental ",
        "state": "Texas"
    },
    "56TX": {
        "lat": 30.0093994141,
        "long": -96.7593994141,
        "name": "Anchorage Farm Field",
        "state": "Texas"
    },
    "57TE": {
        "lat": 29.9388008118,
        "long": -99.7834014893,
        "name": "Prade Ranch ",
        "state": "Texas"
    },
    "57TX": {
        "lat": 28.4419002533,
        "long": -97.804397583,
        "name": "Brown Ranch ",
        "state": "Texas"
    },
    "57XS": {
        "lat": 30.6968994141,
        "long": -97.5600967407,
        "name": "Hoopes Ranch ",
        "state": "Texas"
    },
    "58TE": {
        "lat": 33.40650177,
        "long": -102.077003479,
        "name": "Mc Nabb Farm ",
        "state": "Texas"
    },
    "58TX": {
        "lat": 32.6511993408,
        "long": -97.9336013794,
        "name": "Tailspin Estates ",
        "state": "Texas"
    },
    "58XS": {
        "lat": 31.8306999207,
        "long": -101.055999756,
        "name": "Mc Entire's Lazy V Ranch ",
        "state": "Texas"
    },
    "59TE": {
        "lat": 29.8057994843,
        "long": -95.7529983521,
        "name": "Hoffpauir ",
        "state": "Texas"
    },
    "59TS": {
        "lat": 28.1431007385,
        "long": -98.1583023071,
        "name": "Rossler Ranch ",
        "state": "Texas"
    },
    "59TX": {
        "lat": 32.4872016907,
        "long": -97.4903030396,
        "name": "Benjamin Franklin ",
        "state": "Texas"
    },
    "5TA0": {
        "lat": 32.7319984436,
        "long": -102.9440002441,
        "name": "Hamilton Aircraft Inc ",
        "state": "Texas"
    },
    "5TA1": {
        "lat": 31.1935005188,
        "long": -97.4072036743,
        "name": "Charping ",
        "state": "Texas"
    },
    "5TA2": {
        "lat": 31.4545993805,
        "long": -97.2502975464,
        "name": "Rabbit Run ",
        "state": "Texas"
    },
    "5TA3": {
        "lat": 29.3586006165,
        "long": -97.1446990967,
        "name": "Pearson Ranch Private ",
        "state": "Texas"
    },
    "5TA4": {
        "lat": 34.900100708,
        "long": -101.3170013428,
        "name": "Reed ",
        "state": "Texas"
    },
    "5TA5": {
        "lat": 29.3360996246,
        "long": -95.115196228,
        "name": "Creasy ",
        "state": "Texas"
    },
    "5TA6": {
        "lat": 31.9344005585,
        "long": -99.8943023682,
        "name": "Knot 2 Shabby ",
        "state": "Texas"
    },
    "5TA7": {
        "lat": 29.4207992554,
        "long": -95.1591033936,
        "name": "Kami-Kazi ",
        "state": "Texas"
    },
    "5TA8": {
        "lat": 32.0133018494,
        "long": -95.9282989502,
        "name": "Deer Meadow Ranch ",
        "state": "Texas"
    },
    "5TA9": {
        "lat": 32.6099014282,
        "long": -96.5269012451,
        "name": "Seagoville ",
        "state": "Texas"
    },
    "5TE0": {
        "lat": 28.6280002594,
        "long": -100.158996582,
        "name": "Comanche Ranch ",
        "state": "Texas"
    },
    "5TE1": {
        "lat": 29.6501998901,
        "long": -103.9499969482,
        "name": "Rawls Ranch ",
        "state": "Texas"
    },
    "5TE2": {
        "lat": 30.2252006531,
        "long": -98.141998291,
        "name": "Bleakley Ranch ",
        "state": "Texas"
    },
    "5TE3": {
        "lat": 30.271900177,
        "long": -98.1169967651,
        "name": "Alexander Ranch ",
        "state": "Texas"
    },
    "5TE5": {
        "lat": 30.2738990784,
        "long": -103.2369995117,
        "name": "Iron Mountain Ranch ",
        "state": "Texas"
    },
    "5TE6": {
        "lat": 31.269167,
        "long": -100.460833,
        "name": "Keystone Ranch ",
        "state": "Texas"
    },
    "5TE7": {
        "lat": 29.7194004059,
        "long": -96.3094024658,
        "name": "Renz Ranch ",
        "state": "Texas"
    },
    "5TE8": {
        "lat": 35.7611999512,
        "long": -100.7519989014,
        "name": "Willis N Clark ",
        "state": "Texas"
    },
    "5TS0": {
        "lat": 29.4125003815,
        "long": -95.1223983765,
        "name": "Diehl Ranch ",
        "state": "Texas"
    },
    "5TS1": {
        "lat": 28.2057991028,
        "long": -99.1344985962,
        "name": "Uno Mas Ranch ",
        "state": "Texas"
    },
    "5TS2": {
        "lat": 30.4794006348,
        "long": -97.3191986084,
        "name": "Chan-C ",
        "state": "Texas"
    },
    "5TS3": {
        "lat": 31.974199295,
        "long": -96.6782989502,
        "name": "Knapp Pecan Orchard Airpark",
        "state": "Texas"
    },
    "5TS4": {
        "lat": 33.1445999146,
        "long": -97.6016998291,
        "name": "Mc Entire ",
        "state": "Texas"
    },
    "5TS5": {
        "lat": 28.6511001587,
        "long": -99.2886962891,
        "name": "Mc Donald Ranch ",
        "state": "Texas"
    },
    "5TS7": {
        "lat": 31.776599884,
        "long": -94.485496521,
        "name": "R D Williams ",
        "state": "Texas"
    },
    "5TS8": {
        "lat": 29.808599472,
        "long": -98.2724990845,
        "name": "Bear Creek Ranch ",
        "state": "Texas"
    },
    "5TS9": {
        "lat": 28.5303001404,
        "long": -96.5274963379,
        "name": "Big Duke's Place ",
        "state": "Texas"
    },
    "5TX0": {
        "lat": 33.173500061,
        "long": -97.051399231,
        "name": "Hidden Valley Airpark",
        "state": "Texas"
    },
    "5TX1": {
        "lat": 31.8612995148,
        "long": -98.2594985962,
        "name": "Harley White Field",
        "state": "Texas"
    },
    "5TX2": {
        "lat": 33.4222984314,
        "long": -96.2169036865,
        "name": "Grove Hill ",
        "state": "Texas"
    },
    "5TX4": {
        "lat": 33.0335006714,
        "long": -97.0670013428,
        "name": "Black Mark Strip",
        "state": "Texas"
    },
    "5TX6": {
        "lat": 33.0167999268,
        "long": -97.0725021362,
        "name": "Hilliard Landing Area ",
        "state": "Texas"
    },
    "5TX8": {
        "lat": 33.0321006775,
        "long": -94.3794021606,
        "name": "Boon/Lovelace ",
        "state": "Texas"
    },
    "5TX9": {
        "lat": 29.5835990906,
        "long": -99.5261993408,
        "name": "Utopia on the River ",
        "state": "Texas"
    },
    "5XS0": {
        "lat": 33.4967002869,
        "long": -96.2647018433,
        "name": "Tnt Ultralightport",
        "state": "Texas"
    },
    "5XS2": {
        "lat": 35.0334014893,
        "long": -102.1999969482,
        "name": "Kimball Farm Service Inc ",
        "state": "Texas"
    },
    "5XS3": {
        "lat": 29.7696990967,
        "long": -94.2612991333,
        "name": "Wilber Farms ",
        "state": "Texas"
    },
    "5XS4": {
        "lat": 29.5862998962,
        "long": -98.1196975708,
        "name": "Gary's ",
        "state": "Texas"
    },
    "5XS5": {
        "lat": 32.5427777778,
        "long": -95.7086111111,
        "name": "Wits End Ranch ",
        "state": "Texas"
    },
    "5XS6": {
        "lat": 26.1753997803,
        "long": -97.8752975464,
        "name": "Old Reb ",
        "state": "Texas"
    },
    "5XS7": {
        "lat": 34.2296981812,
        "long": -101.4639968872,
        "name": "Outback ",
        "state": "Texas"
    },
    "5XS8": {
        "lat": 29.5168991089,
        "long": -100.3170013428,
        "name": "L Davis Ranch ",
        "state": "Texas"
    },
    "5XS9": {
        "lat": 31.9218006134,
        "long": -96.2649993896,
        "name": "Byrt ",
        "state": "Texas"
    },
    "60TA": {
        "lat": 32.3250999451,
        "long": -96.9475021362,
        "name": "Air Ranch Estates ",
        "state": "Texas"
    },
    "60TE": {
        "lat": 30.1334991455,
        "long": -99.1502990723,
        "name": "Tierra Linda Ranch ",
        "state": "Texas"
    },
    "60TX": {
        "lat": 30.0335998535,
        "long": -96.2636032104,
        "name": "P-K Ranch ",
        "state": "Texas"
    },
    "61TA": {
        "lat": 32.8839988708,
        "long": -94.6076965332,
        "name": "Eagle Landing ",
        "state": "Texas"
    },
    "61TE": {
        "lat": 32.9868011475,
        "long": -97.6196975708,
        "name": "Kezer Air Ranch ",
        "state": "Texas"
    },
    "61TX": {
        "lat": 29.9724006653,
        "long": -96.3071975708,
        "name": "Traylor Tick Farm ",
        "state": "Texas"
    },
    "61XS": {
        "lat": 29.3243999481,
        "long": -96.0207977295,
        "name": "Shanks Agricultural Strip",
        "state": "Texas"
    },
    "62TA": {
        "lat": 30.3183002472,
        "long": -97.3022003174,
        "name": "Hawken Air One ",
        "state": "Texas"
    },
    "62TX": {
        "lat": 31.0918006897,
        "long": -97.4602966309,
        "name": "Barge Ranch ",
        "state": "Texas"
    },
    "62XS": {
        "lat": 32.0223999023,
        "long": -98.1336975098,
        "name": "J F Ranch ",
        "state": "Texas"
    },
    "63TA": {
        "lat": 34.2695007324,
        "long": -99.5142974854,
        "name": "Barnett ",
        "state": "Texas"
    },
    "63TE": {
        "lat": 31.3535003662,
        "long": -95.2058029175,
        "name": "Flying S Ranch ",
        "state": "Texas"
    },
    "63TX": {
        "lat": 29.7751998901,
        "long": -98.5781021118,
        "name": "Grosser ",
        "state": "Texas"
    },
    "63XS": {
        "lat": 30.2241001129,
        "long": -98.2885971069,
        "name": "Byram Ranch ",
        "state": "Texas"
    },
    "64TE": {
        "lat": 30.1590995789,
        "long": -99.3373031616,
        "name": "Apache Springs ",
        "state": "Texas"
    },
    "65TA": {
        "lat": 30.3432998657,
        "long": -96.3071975708,
        "name": "Flying C Ranch ",
        "state": "Texas"
    },
    "65TE": {
        "lat": 33.568167,
        "long": -96.397167,
        "name": "Windwood Farm ",
        "state": "Texas"
    },
    "65TS": {
        "lat": 33.4023017883,
        "long": -97.6708984375,
        "name": "Becker ",
        "state": "Texas"
    },
    "65TX": {
        "lat": 31.775133,
        "long": -105.431317,
        "name": "Flying Eagle Ranch ",
        "state": "Texas"
    },
    "65XS": {
        "lat": 32.2232017517,
        "long": -97.2817001343,
        "name": "Birdnest ",
        "state": "Texas"
    },
    "66TE": {
        "lat": 32.366111,
        "long": -97.644444,
        "name": "The Landings ",
        "state": "Texas"
    },
    "66TX": {
        "lat": 28.6821537,
        "long": -100.0237885,
        "name": "Loma de Cometa ",
        "state": "Texas"
    },
    "66XS": {
        "lat": 33.3964996338,
        "long": -96.4886016846,
        "name": "Baylie ",
        "state": "Texas"
    },
    "67TE": {
        "lat": 30.9496002197,
        "long": -97.7966995239,
        "name": "Fisher Ranch ",
        "state": "Texas"
    },
    "67TX": {
        "lat": 27.8003005981,
        "long": -97.8511962891,
        "name": "Old Hoppe Place ",
        "state": "Texas"
    },
    "68TE": {
        "lat": 29.196100235,
        "long": -96.491897583,
        "name": "Norris Raun Ranch ",
        "state": "Texas"
    },
    "68TS": {
        "lat": 32.8750991821,
        "long": -96.2878036499,
        "name": "Bishop Field",
        "state": "Texas"
    },
    "68TX": {
        "lat": 27.9808006287,
        "long": -97.7869033813,
        "name": "San Patricio International ",
        "state": "Texas"
    },
    "68XS": {
        "lat": 33.7212982178,
        "long": -96.8697967529,
        "name": "Margaritaville ",
        "state": "Texas"
    },
    "69TA": {
        "lat": 27.6550006866,
        "long": -97.5252990723,
        "name": "Dean ",
        "state": "Texas"
    },
    "69TE": {
        "lat": 30.9263000488,
        "long": -98.2363967896,
        "name": "Deer Pasture ",
        "state": "Texas"
    },
    "69TS": {
        "lat": 30.9988002777,
        "long": -97.755897522,
        "name": "White ",
        "state": "Texas"
    },
    "69TX": {
        "lat": 28.5835990906,
        "long": -96.8544006348,
        "name": "Green Lake Ranch ",
        "state": "Texas"
    },
    "69XA": {
        "lat": 33.349956,
        "long": -97.776206,
        "name": "Richey Airfield",
        "state": "Texas"
    },
    "69XS": {
        "lat": 33.7533988953,
        "long": -96.8302001953,
        "name": "Brushy Creek ",
        "state": "Texas"
    },
    "6TA0": {
        "lat": 30.858499527,
        "long": -100.3229980469,
        "name": "Rocking R Ranch ",
        "state": "Texas"
    },
    "6TA2": {
        "lat": 33.3722000122,
        "long": -96.362197876,
        "name": "Rockys Place ",
        "state": "Texas"
    },
    "6TA3": {
        "lat": 32.7214012146,
        "long": -96.7238998413,
        "name": "Culp ",
        "state": "Texas"
    },
    "6TA4": {
        "lat": 28.7168998718,
        "long": -100.408996582,
        "name": "Winn Exploration Co. Inc ",
        "state": "Texas"
    },
    "6TA7": {
        "lat": 32.8284988403,
        "long": -97.7795028687,
        "name": "Flying K ",
        "state": "Texas"
    },
    "6TA9": {
        "lat": 28.1170005798,
        "long": -98.0447006226,
        "name": "Los Ebanos Ranch ",
        "state": "Texas"
    },
    "6TE0": {
        "lat": 26.2903003693,
        "long": -97.9494018555,
        "name": "Skalitsky ",
        "state": "Texas"
    },
    "6TE1": {
        "lat": 26.3614997864,
        "long": -98.1524963379,
        "name": "Norman & White ",
        "state": "Texas"
    },
    "6TE2": {
        "lat": 32.270401001,
        "long": -99.5979003906,
        "name": "Zimmerle ",
        "state": "Texas"
    },
    "6TE3": {
        "lat": 28.9489002228,
        "long": -96.549697876,
        "name": "Hahns ",
        "state": "Texas"
    },
    "6TE4": {
        "lat": 36.2333984375,
        "long": -101.7340011597,
        "name": "Coldwater Ranch ",
        "state": "Texas"
    },
    "6TE5": {
        "lat": 28.9808006287,
        "long": -96.6219024658,
        "name": "Kubecka Flying Service Inc. ",
        "state": "Texas"
    },
    "6TE6": {
        "lat": 33.6412010193,
        "long": -100.347999573,
        "name": "6666 Ranch ",
        "state": "Texas"
    },
    "6TE7": {
        "lat": 34.837600708,
        "long": -101.57900238,
        "name": "Mc Neill Ranch ",
        "state": "Texas"
    },
    "6TE8": {
        "lat": 33.1689987183,
        "long": -100.2170028687,
        "name": "Douglas Flying Service Private ",
        "state": "Texas"
    },
    "6TE9": {
        "lat": 32.8167991638,
        "long": -94.616897583,
        "name": "Mc Kenzie Field",
        "state": "Texas"
    },
    "6TS0": {
        "lat": 34.0892219543,
        "long": -101.7404632568,
        "name": "True ",
        "state": "Texas"
    },
    "6TS1": {
        "lat": 31.1779003143,
        "long": -98.073097229,
        "name": "Worrell ",
        "state": "Texas"
    },
    "6TS2": {
        "lat": 29.0993995667,
        "long": -98.46559906,
        "name": "Dauenhauer Field ",
        "state": "Texas"
    },
    "6TS3": {
        "lat": 32.1599006653,
        "long": -96.9419021606,
        "name": "Dale Acres ",
        "state": "Texas"
    },
    "6TS4": {
        "lat": 31.1863002777,
        "long": -97.3906021118,
        "name": "Stampede Valley ",
        "state": "Texas"
    },
    "6TS6": {
        "lat": 31.0415992737,
        "long": -96.2015991211,
        "name": "Wood Crest Ranch ",
        "state": "Texas"
    },
    "6TS8": {
        "lat": 30.003333,
        "long": -96.581111,
        "name": "Rabb And Nobra ",
        "state": "Texas"
    },
    "6TX2": {
        "lat": 29.8349990845,
        "long": -96.5143966675,
        "name": "Circle M Ranch ",
        "state": "Texas"
    },
    "6TX3": {
        "lat": 33.2335014343,
        "long": -96.7835998535,
        "name": "Drewery ",
        "state": "Texas"
    },
    "6TX4": {
        "lat": 34.3433990479,
        "long": -101.5439987183,
        "name": "Whitfield ",
        "state": "Texas"
    },
    "6TX6": {
        "lat": 32.0825996399,
        "long": -96.3566970825,
        "name": "Jtj Ranch ",
        "state": "Texas"
    },
    "6TX7": {
        "lat": 32.5376014709,
        "long": -97.1307983398,
        "name": "Flying L Airpark",
        "state": "Texas"
    },
    "6TX8": {
        "lat": 32.5559997559,
        "long": -97.2063980103,
        "name": "Hess ",
        "state": "Texas"
    },
    "6TX9": {
        "lat": 29.8549003601,
        "long": -102.7919998169,
        "name": "Stovall Ranch Nr 4 ",
        "state": "Texas"
    },
    "6XA4": {
        "lat": 29.9917385509,
        "long": -95.954353809,
        "name": "Zadow Airstrip",
        "state": "Texas"
    },
    "6XS2": {
        "lat": 32.3460006714,
        "long": -97.1992034912,
        "name": "Luscombe Acres ",
        "state": "Texas"
    },
    "6XS3": {
        "lat": 33.1385002136,
        "long": -96.3854980469,
        "name": "Mullins Landing ",
        "state": "Texas"
    },
    "6XS4": {
        "lat": 31.1667995453,
        "long": -101,
        "name": "Noelke Ranch ",
        "state": "Texas"
    },
    "6XS5": {
        "lat": 26.3087005615,
        "long": -97.9543991089,
        "name": "Cannon Aviation ",
        "state": "Texas"
    },
    "6XS7": {
        "lat": 33.04529953,
        "long": -97.6747970581,
        "name": "Eugene's Dream ",
        "state": "Texas"
    },
    "6XS8": {
        "lat": 33.3400001526,
        "long": -97.1031036377,
        "name": "Vultures Row ",
        "state": "Texas"
    },
    "6XS9": {
        "lat": 29.2961006165,
        "long": -98.3795013428,
        "name": "Harmony Field",
        "state": "Texas"
    },
    "70TE": {
        "lat": 31.5020999908,
        "long": -97.0808029175,
        "name": "Flying Heart Ranch ",
        "state": "Texas"
    },
    "70XS": {
        "lat": 29.9932994843,
        "long": -98.043296814,
        "name": "Restoration Ranch ",
        "state": "Texas"
    },
    "71TA": {
        "lat": 31.8334999084,
        "long": -102.2340011597,
        "name": "Bates Field",
        "state": "Texas"
    },
    "71TE": {
        "lat": 30.3780002594,
        "long": -98.3760986328,
        "name": "Moursund Ranch ",
        "state": "Texas"
    },
    "71TS": {
        "lat": 32.8959999084,
        "long": -97.2878036499,
        "name": "Circle C Ranch ",
        "state": "Texas"
    },
    "71TX": {
        "lat": 29.8726997375,
        "long": -98.7322006226,
        "name": "Grier ",
        "state": "Texas"
    },
    "71XS": {
        "lat": 33.3465003967,
        "long": -97.2058029175,
        "name": "Flying V ",
        "state": "Texas"
    },
    "72TA": {
        "lat": 28.4585990906,
        "long": -96.2919006348,
        "name": "Pierce Field",
        "state": "Texas"
    },
    "72TE": {
        "lat": 28.8794002533,
        "long": -99.9906005859,
        "name": "Chaparrosa Ranch ",
        "state": "Texas"
    },
    "72TS": {
        "lat": 29.3607997894,
        "long": -96.6224975586,
        "name": "Galaxy Ranch ",
        "state": "Texas"
    },
    "72XS": {
        "lat": 30.0335998535,
        "long": -96.6847000122,
        "name": "El Paisano ",
        "state": "Texas"
    },
    "73TA": {
        "lat": 30.9207000732,
        "long": -97.5397033691,
        "name": "Salado ",
        "state": "Texas"
    },
    "73TE": {
        "lat": 32.9249992371,
        "long": -97.5582962036,
        "name": "Moore Private ",
        "state": "Texas"
    },
    "73TX": {
        "lat": 29.1718997955,
        "long": -100.641998291,
        "name": "Frerich Ranch ",
        "state": "Texas"
    },
    "73XS": {
        "lat": 32.4459991455,
        "long": -98.3712005615,
        "name": "Dearing Ranch ",
        "state": "Texas"
    },
    "74TA": {
        "lat": 28.4503002167,
        "long": -100.1500015259,
        "name": "Glass Ranch ",
        "state": "Texas"
    },
    "74TE": {
        "lat": 32.05989838,
        "long": -97.79470062,
        "name": "Flat Top Ranch ",
        "state": "Texas"
    },
    "74TX": {
        "lat": 29.2866001129,
        "long": -100.4339981079,
        "name": "Fort Clark Springs ",
        "state": "Texas"
    },
    "74XA": {
        "lat": 32.3551499558,
        "long": -96.1456650496,
        "name": "Gun Barrel City Airpark",
        "state": "Texas"
    },
    "74XS": {
        "lat": 31.418800354,
        "long": -101.4820022583,
        "name": "Charles J Hughes Ranch ",
        "state": "Texas"
    },
    "75TA": {
        "lat": 32.5343017578,
        "long": -101.7249984741,
        "name": "Coleman Cattle Company Nr 1 ",
        "state": "Texas"
    },
    "75TE": {
        "lat": 31.7474002838,
        "long": -97.2461013794,
        "name": "Womack Farm ",
        "state": "Texas"
    },
    "75TS": {
        "lat": 32.4164009094,
        "long": -97.0919036865,
        "name": "Venus ",
        "state": "Texas"
    },
    "75TX": {
        "lat": 29.5002002716,
        "long": -100.3669967651,
        "name": "Leona Ranch ",
        "state": "Texas"
    },
    "75XS": {
        "lat": 29.2493991852,
        "long": -98.4760971069,
        "name": "Triple R ",
        "state": "Texas"
    },
    "76TA": {
        "lat": 35.4016990662,
        "long": -102.8079986572,
        "name": "Coleman Cattle Company Nr 2 ",
        "state": "Texas"
    },
    "76TE": {
        "lat": 31.5000991821,
        "long": -105.0839996338,
        "name": "Big Tank Ranch ",
        "state": "Texas"
    },
    "76TX": {
        "lat": 33.1473007202,
        "long": -96.9757995605,
        "name": "Spanish Oaks ",
        "state": "Texas"
    },
    "77TA": {
        "lat": 32.8740005493,
        "long": -97.6613998413,
        "name": "Blue Skies ",
        "state": "Texas"
    },
    "77TS": {
        "lat": 29.7994003296,
        "long": -98.0849990845,
        "name": "Flying R Ranch ",
        "state": "Texas"
    },
    "77TX": {
        "lat": 29.7816009521,
        "long": -95.9147033691,
        "name": "Woods ",
        "state": "Texas"
    },
    "77XS": {
        "lat": 29.2872009277,
        "long": -95.359703064,
        "name": "Garrett Ranch ",
        "state": "Texas"
    },
    "78TA": {
        "lat": 29.0613994598,
        "long": -98.8003005981,
        "name": "Ranch-Aero ",
        "state": "Texas"
    },
    "78TE": {
        "lat": 32.020401001,
        "long": -97.3311004639,
        "name": "Rocking A ",
        "state": "Texas"
    },
    "78XS": {
        "lat": 29.0529994965,
        "long": -96.2621994019,
        "name": "Smith Aviation Inc ",
        "state": "Texas"
    },
    "79TA": {
        "lat": 28.1697006226,
        "long": -98.8899993896,
        "name": "Morris Ranch ",
        "state": "Texas"
    },
    "79TE": {
        "lat": 28.1156005859,
        "long": -97.9308013916,
        "name": "Arrowhead ",
        "state": "Texas"
    },
    "79TS": {
        "lat": 33.3042984009,
        "long": -96.7472000122,
        "name": "Tallows Field",
        "state": "Texas"
    },
    "79TX": {
        "lat": 26.0730991364,
        "long": -97.5374984741,
        "name": "Ag-Air Inc. ",
        "state": "Texas"
    },
    "79XS": {
        "lat": 34.4667015076,
        "long": -101.3000030518,
        "name": "Silverton Municipal ",
        "state": "Texas"
    },
    "7TA0": {
        "lat": 30.0921993256,
        "long": -95.6516036987,
        "name": "Field's Field",
        "state": "Texas"
    },
    "7TA3": {
        "lat": 34.1809005737,
        "long": -101.8369979858,
        "name": "Quarterway ",
        "state": "Texas"
    },
    "7TA5": {
        "lat": 30.5870990753,
        "long": -96.6341018677,
        "name": "Weber Ranch ",
        "state": "Texas"
    },
    "7TA7": {
        "lat": 31.8398990631,
        "long": -94.9613037109,
        "name": "Flying M Ranch ",
        "state": "Texas"
    },
    "7TA8": {
        "lat": 29.8596992493,
        "long": -98.7414016724,
        "name": "John Henry Key ",
        "state": "Texas"
    },
    "7TE0": {
        "lat": 29.9137992859,
        "long": -94.2081985474,
        "name": "Kelley Crop Service ",
        "state": "Texas"
    },
    "7TE1": {
        "lat": 27.0725002289,
        "long": -98.9385986328,
        "name": "Zachry Ranch ",
        "state": "Texas"
    },
    "7TE2": {
        "lat": 27.1058998108,
        "long": -98.2058029175,
        "name": "Cage Ranch ",
        "state": "Texas"
    },
    "7TE3": {
        "lat": 31.233499527,
        "long": -98.4670028687,
        "name": "Lometa Air Strip",
        "state": "Texas"
    },
    "7TE4": {
        "lat": 29.5969009399,
        "long": -99.8452987671,
        "name": "Flying J Ranch ",
        "state": "Texas"
    },
    "7TE5": {
        "lat": 31.6791992188,
        "long": -98.6635971069,
        "name": "Carlisle ",
        "state": "Texas"
    },
    "7TE6": {
        "lat": 29.2003002167,
        "long": -96.554397583,
        "name": "Stovall Ranch Nr 1 ",
        "state": "Texas"
    },
    "7TE7": {
        "lat": 26.3836994171,
        "long": -98.3336029053,
        "name": "Moore Field",
        "state": "Texas"
    },
    "7TE8": {
        "lat": 32.4210014343,
        "long": -100.8109970093,
        "name": "Trulock Ranch Field",
        "state": "Texas"
    },
    "7TE9": {
        "lat": 29.0272006989,
        "long": -98.2866973877,
        "name": "Boening Brothers ",
        "state": "Texas"
    },
    "7TS0": {
        "lat": 33.0951004028,
        "long": -97.4270019531,
        "name": "Fairview ",
        "state": "Texas"
    },
    "7TS2": {
        "lat": 29.8313007355,
        "long": -97.8891983032,
        "name": "Alison Air Park",
        "state": "Texas"
    },
    "7TS3": {
        "lat": 29.9598999023,
        "long": -97.9852981567,
        "name": "Wyatt ",
        "state": "Texas"
    },
    "7TS4": {
        "lat": 33.1832008362,
        "long": -97.2545013428,
        "name": "Roma ",
        "state": "Texas"
    },
    "7TS7": {
        "lat": 29.9111003876,
        "long": -94.3391036987,
        "name": "Broussard Farm ",
        "state": "Texas"
    },
    "7TS8": {
        "lat": 34.4038009644,
        "long": -102.4540023804,
        "name": "Ott Farms ",
        "state": "Texas"
    },
    "7TS9": {
        "lat": 29.0541000366,
        "long": -95.9625015259,
        "name": "Ag Aviation ",
        "state": "Texas"
    },
    "7TX0": {
        "lat": 33.8282012939,
        "long": -98.5727005005,
        "name": "Tom Danaher ",
        "state": "Texas"
    },
    "7TX4": {
        "lat": 32.9668006897,
        "long": -97.2752990723,
        "name": "Hillcrest ",
        "state": "Texas"
    },
    "7TX5": {
        "lat": 32.2170982361,
        "long": -102.1600036621,
        "name": "Mabee Ranch ",
        "state": "Texas"
    },
    "7TX7": {
        "lat": 32.0834999084,
        "long": -102.016998291,
        "name": "Ryan Aerodrome",
        "state": "Texas"
    },
    "7TX8": {
        "lat": 35.1076011658,
        "long": -102.0380020142,
        "name": "Flying K ",
        "state": "Texas"
    },
    "7TX9": {
        "lat": 33.3586997986,
        "long": -94.4376983643,
        "name": "Ashford Field",
        "state": "Texas"
    },
    "7XS0": {
        "lat": 29.504699707,
        "long": -95.1754989624,
        "name": "Polly Ranch ",
        "state": "Texas"
    },
    "7XS1": {
        "lat": 32.9933013916,
        "long": -97.676902771,
        "name": "Flying E Ranch ",
        "state": "Texas"
    },
    "7XS2": {
        "lat": 31.2423992157,
        "long": -95.6041030884,
        "name": "Kenley's Mustang Prairie Ranch ",
        "state": "Texas"
    },
    "7XS3": {
        "lat": 31.476600647,
        "long": -95.6350021362,
        "name": "W C Ranch ",
        "state": "Texas"
    },
    "7XS5": {
        "lat": 30.8603000641,
        "long": -100.5670013428,
        "name": "Christian Ranch ",
        "state": "Texas"
    },
    "7XS6": {
        "lat": 31.7943992615,
        "long": -96.2080001831,
        "name": "Moore Hx Ranch ",
        "state": "Texas"
    },
    "7XS7": {
        "lat": 30.1147003174,
        "long": -98.931098938,
        "name": "Indian Springs Ranch ",
        "state": "Texas"
    },
    "80TS": {
        "lat": 31.3276996613,
        "long": -95.5729980469,
        "name": "M Y Ranch ",
        "state": "Texas"
    },
    "80TX": {
        "lat": 25.926700592,
        "long": -97.4085998535,
        "name": "Resaca Airstrip",
        "state": "Texas"
    },
    "80XS": {
        "lat": 33.6432991028,
        "long": -97.0021972656,
        "name": "Three Acres ",
        "state": "Texas"
    },
    "81TE": {
        "lat": 29.5419006348,
        "long": -100.6169967651,
        "name": "Horn Ranch ",
        "state": "Texas"
    },
    "81TS": {
        "lat": 31.4437999725,
        "long": -95.2754974365,
        "name": "Dibrell ",
        "state": "Texas"
    },
    "81TX": {
        "lat": 29.3432998657,
        "long": -103.5650024414,
        "name": "La Leona ",
        "state": "Texas"
    },
    "82TE": {
        "lat": 29.6916007996,
        "long": -98.7074966431,
        "name": "Tarry Bank ",
        "state": "Texas"
    },
    "82TS": {
        "lat": 32.4500999451,
        "long": -99.6503982544,
        "name": "Elmdale Airpark",
        "state": "Texas"
    },
    "82XS": {
        "lat": 29.1026992798,
        "long": -98.2166976929,
        "name": "Circle P Ranch ",
        "state": "Texas"
    },
    "83TA": {
        "lat": 31.9002990723,
        "long": -96.6003036499,
        "name": "Rainbow Field",
        "state": "Texas"
    },
    "83TE": {
        "lat": 29.4969005585,
        "long": -99.4938964844,
        "name": "K Bar Ranch ",
        "state": "Texas"
    },
    "83TS": {
        "lat": 32.426700592,
        "long": -98.4197006226,
        "name": "Moore Ranch ",
        "state": "Texas"
    },
    "83TX": {
        "lat": 30.6334991455,
        "long": -96.4835968018,
        "name": "Texas A And M Flight Test Station ",
        "state": "Texas"
    },
    "84TE": {
        "lat": 31.988067,
        "long": -97.543181,
        "name": "W4 Ranch ",
        "state": "Texas"
    },
    "84TX": {
        "lat": 30.7413005829,
        "long": -98.3786010742,
        "name": "Camp Longhorn ",
        "state": "Texas"
    },
    "84XS": {
        "lat": 30.255,
        "long": -99.398889,
        "name": "Lang Ranch ",
        "state": "Texas"
    },
    "85TA": {
        "lat": 33.5798988342,
        "long": -96.8124008179,
        "name": "J-Bar Ranch ",
        "state": "Texas"
    },
    "85TE": {
        "lat": 29.6341991425,
        "long": -97.8116989136,
        "name": "Old Kingsbury Aerodrome",
        "state": "Texas"
    },
    "85TX": {
        "lat": 30.0776996613,
        "long": -97.9655990601,
        "name": "Rutherford Ranch ",
        "state": "Texas"
    },
    "86TA": {
        "lat": 30.6126995087,
        "long": -98.2975006104,
        "name": "Slaughter Ranch ",
        "state": "Texas"
    },
    "86TE": {
        "lat": 32.6498985291,
        "long": -98.1473007202,
        "name": "Matthews Ranch ",
        "state": "Texas"
    },
    "86TS": {
        "lat": 31.483499527,
        "long": -94.0335006714,
        "name": "Fairway Farm ",
        "state": "Texas"
    },
    "86TX": {
        "lat": 29.7371997833,
        "long": -98.3788986206,
        "name": "Flying J ",
        "state": "Texas"
    },
    "86XS": {
        "lat": 32.400100708,
        "long": -100.3669967651,
        "name": "Gesin Ranches ",
        "state": "Texas"
    },
    "87TA": {
        "lat": 30.1891002655,
        "long": -99.2697982788,
        "name": "Cielo Grande Ranch ",
        "state": "Texas"
    },
    "87TE": {
        "lat": 29.4519004822,
        "long": -95.8655014038,
        "name": "Rose Field ",
        "state": "Texas"
    },
    "87TX": {
        "lat": 28.6900005341,
        "long": -97.7602996826,
        "name": "Porter Ranch ",
        "state": "Texas"
    },
    "87XS": {
        "lat": 29.7877006531,
        "long": -99.262802124,
        "name": "Cinco B Ranch ",
        "state": "Texas"
    },
    "88TA": {
        "lat": 31.4559993744,
        "long": -104.84400177,
        "name": "Figure 2 Ranch ",
        "state": "Texas"
    },
    "88TE": {
        "lat": 29.9016990662,
        "long": -96.7992019653,
        "name": "Thunderbird Southwest ",
        "state": "Texas"
    },
    "88XS": {
        "lat": 30.0191001892,
        "long": -94.3877029419,
        "name": "Bogan & Fontenot ",
        "state": "Texas"
    },
    "89TA": {
        "lat": 30.1926994324,
        "long": -95.9633026123,
        "name": "Soaring Club of Houston Gliderport",
        "state": "Texas"
    },
    "89TE": {
        "lat": 29.27799988,
        "long": -103.6869965,
        "name": "Lajitas International ",
        "state": "Texas"
    },
    "89TS": {
        "lat": 31.5667991638,
        "long": -95.7666015625,
        "name": "Carter Ranch ",
        "state": "Texas"
    },
    "89TX": {
        "lat": 30.8792991638,
        "long": -98.4169998169,
        "name": "Aero-Bee Ranch Airstrip",
        "state": "Texas"
    },
    "8TA0": {
        "lat": 29.135799408,
        "long": -98.2763977051,
        "name": "John B Connally Ranch ",
        "state": "Texas"
    },
    "8TA1": {
        "lat": 28.478099823,
        "long": -96.7619018555,
        "name": "Whatley Flying Service ",
        "state": "Texas"
    },
    "8TA3": {
        "lat": 30.5168991089,
        "long": -98.1742019653,
        "name": "Flying X River Ranch ",
        "state": "Texas"
    },
    "8TA4": {
        "lat": 29.4454994202,
        "long": -95.0076980591,
        "name": "Laseair ",
        "state": "Texas"
    },
    "8TA5": {
        "lat": 33.1632003784,
        "long": -96.3221969604,
        "name": "Short Stop ",
        "state": "Texas"
    },
    "8TA7": {
        "lat": 32.5695991516,
        "long": -97.7530975342,
        "name": "Stark Field",
        "state": "Texas"
    },
    "8TA8": {
        "lat": 31.1690998077,
        "long": -94.5324020386,
        "name": "Bufords Field",
        "state": "Texas"
    },
    "8TE0": {
        "lat": 29.1390991211,
        "long": -98.1132965088,
        "name": "Gillingham ",
        "state": "Texas"
    },
    "8TE1": {
        "lat": 29.017999649,
        "long": -98.206703186,
        "name": "Wall Flying Service ",
        "state": "Texas"
    },
    "8TE2": {
        "lat": 31.5279006958,
        "long": -102.5279998779,
        "name": "J-Bar Ranch ",
        "state": "Texas"
    },
    "8TE3": {
        "lat": 30.7182006836,
        "long": -100.0810012817,
        "name": "Lopez Ranch ",
        "state": "Texas"
    },
    "8TE4": {
        "lat": 28.8150005341,
        "long": -99.758102417,
        "name": "H & F Properties ",
        "state": "Texas"
    },
    "8TE6": {
        "lat": 30.3001995087,
        "long": -102.717002869,
        "name": "Faith Cattle Company Longfellow Ranch ",
        "state": "Texas"
    },
    "8TE7": {
        "lat": 30.3208007813,
        "long": -98.9128036499,
        "name": "Carter Ranch STOLport",
        "state": "Texas"
    },
    "8TE8": {
        "lat": 29.1627998352,
        "long": -96.2251968384,
        "name": "Tradewind Agricultural ",
        "state": "Texas"
    },
    "8TS0": {
        "lat": 27.5531005859,
        "long": -98.7322006226,
        "name": "Hamilton Ranch ",
        "state": "Texas"
    },
    "8TS1": {
        "lat": 32.5418014526,
        "long": -97.2419967651,
        "name": "Retta ",
        "state": "Texas"
    },
    "8TS2": {
        "lat": 33.7834014893,
        "long": -98.2170028687,
        "name": "Henrietta ",
        "state": "Texas"
    },
    "8TS3": {
        "lat": 31.3901996613,
        "long": -95.4732971191,
        "name": "Bruner ",
        "state": "Texas"
    },
    "8TS5": {
        "lat": 32.4678993225,
        "long": -97.3683013916,
        "name": "Stol Field",
        "state": "Texas"
    },
    "8TS6": {
        "lat": 32.5331993103,
        "long": -96.3225021362,
        "name": "Moore ",
        "state": "Texas"
    },
    "8TS7": {
        "lat": 32.2448997498,
        "long": -97.7260971069,
        "name": "Wyatt 3-Rivers ",
        "state": "Texas"
    },
    "8TS8": {
        "lat": 29.9174003601,
        "long": -100.9130020142,
        "name": "Rnk Ranch ",
        "state": "Texas"
    },
    "8TS9": {
        "lat": 28.1399993896,
        "long": -99.5702972412,
        "name": "Strait Ranch ",
        "state": "Texas"
    },
    "8TX0": {
        "lat": 31.429599762,
        "long": -96.1302032471,
        "name": "Hub Field",
        "state": "Texas"
    },
    "8TX2": {
        "lat": 29.9785003662,
        "long": -100.202003479,
        "name": "Freeman Ranch ",
        "state": "Texas"
    },
    "8TX3": {
        "lat": 31.3428993225,
        "long": -98.6156005859,
        "name": "Edwards ",
        "state": "Texas"
    },
    "8TX6": {
        "lat": 32.4276008606,
        "long": -96.7169036865,
        "name": "Harper ",
        "state": "Texas"
    },
    "8TX7": {
        "lat": 29.8335990906,
        "long": -95.1484985352,
        "name": "Skyhaven ",
        "state": "Texas"
    },
    "8TX8": {
        "lat": 27.3609008789,
        "long": -98.1794967651,
        "name": "Weeks ",
        "state": "Texas"
    },
    "8XS0": {
        "lat": 30.2544002533,
        "long": -99.0997009277,
        "name": "Tivydale Ranch ",
        "state": "Texas"
    },
    "8XS1": {
        "lat": 29.8826999664,
        "long": -95.8118972778,
        "name": "Harold Freeman Farm ",
        "state": "Texas"
    },
    "8XS2": {
        "lat": 27.9297008514,
        "long": -99.8511962891,
        "name": "Rachal ",
        "state": "Texas"
    },
    "8XS3": {
        "lat": 30.5669002533,
        "long": -97.829498291,
        "name": "Pegasus Place Airstrip",
        "state": "Texas"
    },
    "8XS6": {
        "lat": 33.4522018433,
        "long": -96.8328018188,
        "name": "Mc Manus Field",
        "state": "Texas"
    },
    "8XS8": {
        "lat": 33.5903015137,
        "long": -102.0370025635,
        "name": "Reese Airpark",
        "state": "Texas"
    },
    "8XS9": {
        "lat": 29.9571990967,
        "long": -98.7906036377,
        "name": "Rust Field",
        "state": "Texas"
    },
    "90TE": {
        "lat": 32.1957015991,
        "long": -96.4385986328,
        "name": "The Homestead ",
        "state": "Texas"
    },
    "90TS": {
        "lat": 30.7791996002,
        "long": -95.797203064,
        "name": "Jordan Ranch ",
        "state": "Texas"
    },
    "90TX": {
        "lat": 27.8794002533,
        "long": -99.396697998,
        "name": "Callaghan Ranch ",
        "state": "Texas"
    },
    "91TA": {
        "lat": 32.4459991455,
        "long": -95.9188995361,
        "name": "Rhines Roost ",
        "state": "Texas"
    },
    "91TE": {
        "lat": 30.7247009277,
        "long": -97.8619995117,
        "name": "Britts Crosswind ",
        "state": "Texas"
    },
    "91TS": {
        "lat": 29.3686008453,
        "long": -95.3398971558,
        "name": "Songbird Ranch ",
        "state": "Texas"
    },
    "91TX": {
        "lat": 28.396900177,
        "long": -98.3628005981,
        "name": "Paisano Ranch ",
        "state": "Texas"
    },
    "92TA": {
        "lat": 26.1212005615,
        "long": -97.4280014038,
        "name": "Drennan Farm ",
        "state": "Texas"
    },
    "92TE": {
        "lat": 29.9668998718,
        "long": -102.9339981079,
        "name": "Chaney San Francisco Ranch ",
        "state": "Texas"
    },
    "92XS": {
        "lat": 26.4790000916,
        "long": -97.6872024536,
        "name": "T.R. Funk Inc ",
        "state": "Texas"
    },
    "93TE": {
        "lat": 29.8096008301,
        "long": -102.9079971313,
        "name": "Mayhew Ranch Nr 1 ",
        "state": "Texas"
    },
    "93TS": {
        "lat": 29.7483005524,
        "long": -96.1147003174,
        "name": "Longbird ",
        "state": "Texas"
    },
    "93TX": {
        "lat": 30.914899826,
        "long": -96.6855010986,
        "name": "Putz Aero Inc ",
        "state": "Texas"
    },
    "93XS": {
        "lat": 29.0811004639,
        "long": -95.3826980591,
        "name": "Joseph Ross Scherdin ",
        "state": "Texas"
    },
    "94TA": {
        "lat": 31.3057003021,
        "long": -100.4589996338,
        "name": "Reece Field",
        "state": "Texas"
    },
    "94TX": {
        "lat": 31.4377002716,
        "long": -99.3155975342,
        "name": "River Bend Ranch ",
        "state": "Texas"
    },
    "94XS": {
        "lat": 29.6543998718,
        "long": -95.8293991089,
        "name": "Heritage Ranch ",
        "state": "Texas"
    },
    "95TA": {
        "lat": 29.6348991394,
        "long": -99.4822998047,
        "name": "Thunder Creek ",
        "state": "Texas"
    },
    "95TS": {
        "lat": 33.2308006287,
        "long": -98.4897003174,
        "name": "Rob ",
        "state": "Texas"
    },
    "95TX": {
        "lat": 28.1924991608,
        "long": -100.0719985962,
        "name": "Chupadera Ranch ",
        "state": "Texas"
    },
    "96TE": {
        "lat": 28.9477996826,
        "long": -97.4599990845,
        "name": "Yorktown ",
        "state": "Texas"
    },
    "96TS": {
        "lat": 32.2246017456,
        "long": -95.1958007813,
        "name": "Nuttall ",
        "state": "Texas"
    },
    "96TX": {
        "lat": 31.1653995514,
        "long": -100.4759979248,
        "name": "Brown Field",
        "state": "Texas"
    },
    "97TS": {
        "lat": 30.4801998138,
        "long": -95.5399017334,
        "name": "Gdap Air Ranch ",
        "state": "Texas"
    },
    "97TX": {
        "lat": 28.2835998535,
        "long": -100.0670013428,
        "name": "San Pedro Ranch ",
        "state": "Texas"
    },
    "97XS": {
        "lat": 33.432833,
        "long": -96.479467,
        "name": "Tilghman ",
        "state": "Texas"
    },
    "98TS": {
        "lat": 32.4182014465,
        "long": -95.0001983643,
        "name": "Trap Travelstead Field",
        "state": "Texas"
    },
    "99TE": {
        "lat": 33.6058006287,
        "long": -96.4156036377,
        "name": "Pritchard ",
        "state": "Texas"
    },
    "99TX": {
        "lat": 28.3003005981,
        "long": -99.5670013428,
        "name": "Briggs Ranch ",
        "state": "Texas"
    },
    "99XA": {
        "lat": 30.8639760767,
        "long": -98.0037117004,
        "name": "Briggs / Skotz Airfield",
        "state": "Texas"
    },
    "99XS": {
        "lat": 32.6834983826,
        "long": -97.8056030273,
        "name": "Sam Little International ",
        "state": "Texas"
    },
    "9TA1": {
        "lat": 29.6585998535,
        "long": -98.137802124,
        "name": "Hilltop Ranch ",
        "state": "Texas"
    },
    "9TA2": {
        "lat": 35.9289016724,
        "long": -100.3069992065,
        "name": "Urschel Ranch ",
        "state": "Texas"
    },
    "9TA3": {
        "lat": 29.8729991913,
        "long": -94.9896011353,
        "name": "Rogers ",
        "state": "Texas"
    },
    "9TA8": {
        "lat": 31.6840991974,
        "long": -94.9772033691,
        "name": "Taylor Ranch ",
        "state": "Texas"
    },
    "9TE0": {
        "lat": 32.3992004395,
        "long": -96.3835983276,
        "name": "Twin Acres ",
        "state": "Texas"
    },