{
  "00AK": {
    "lat": 59.94919968,
    "long": -151.695999146,
    "name": "Lowell Field"
  },
  "00AL": {
    "lat": 34.8647994995,
    "long": -86.7703018188,
    "name": "Epps Airpark"
  },
  "00AZ": {
    "lat": 34.3055992126,
    "long": -112.1650009155,
    "name": "Cordes "
  },
  "00CA": {
    "lat": 35.3504981995,
    "long": -116.888000488,
    "name": "Goldstone /Gts/ "
  },
  "00CO": {
    "lat": 40.6222000122,
    "long": -104.34400177,
    "name": "Cass Field"
  },
  "00FA": {
    "lat": 28.6455001831,
    "long": -82.21900177,
    "name": "Grass Patch "
  },
  "00FL": {
    "lat": 27.2308998108,
    "long": -80.9692001343,
    "name": "River Oak "
  },
  "00GA": {
    "lat": 33.7675018311,
    "long": -84.0682983398,
    "name": "Lt World "
  },
  "00ID": {
    "lat": 48.1453018188,
    "long": -116.2139968872,
    "name": "Delta Shores "
  },
  "00IL": {
    "lat": 41.9784011841,
    "long": -89.5604019165,
    "name": "Hammer "
  },
  "00IS": {
    "lat": 40.0256004333,
    "long": -89.1229019165,
    "name": "Hayenga's Cant Find Farms "
  },
  "00KS": {
    "lat": 38.7277984619,
    "long": -94.9304962158,
    "name": "Hayden Farm "
  },
  "00KY": {
    "lat": 37.4094009399,
    "long": -84.6196975708,
    "name": "Robbins Roost "
  },
  "00LS": {
    "lat": 30.1362991333,
    "long": -92.429397583,
    "name": "Lejeune "
  },
  "00MD": {
    "lat": 38.7570991516,
    "long": -75.7537994385,
    "name": "Slater Field"
  },
  "00MN": {
    "lat": 46.2999992371,
    "long": -95.700302124,
    "name": "Battle Lake Municipal "
  },
  "00MO": {
    "lat": 37.2028007507,
    "long": -94.412399292,
    "name": "Cooper Flying Service "
  },
  "00MT": {
    "lat": 48.5374984741,
    "long": -109.7050018311,
    "name": "Sands Ranch "
  },
  "00NC": {
    "lat": 36.0852012634,
    "long": -78.3713989258,
    "name": "North Raleigh "
  },
  "00NY": {
    "lat": 42.900100708,
    "long": -77.4997024536,
    "name": "Weiss Airfield"
  },
  "00OH": {
    "lat": 41.5909004211,
    "long": -84.1421966553,
    "name": "Exit 3 "
  },
  "00PN": {
    "lat": 41.2995,
    "long": -80.211111,
    "name": "Ferrell Field"
  },
  "00PS": {
    "lat": 40.3777999878,
    "long": -77.3653030396,
    "name": "Thomas Field"
  },
  "00SC": {
    "lat": 34.0093994141,
    "long": -80.2671966553,
    "name": "Flying O "
  },
  "00TN": {
    "lat": 35.5158996582,
    "long": -85.9535980225,
    "name": "Ragsdale Road "
  },
  "00TS": {
    "lat": 32.6076011658,
    "long": -97.2419967651,
    "name": "Alpine Range "
  },
  "00VA": {
    "lat": 36.57600021,
    "long": -78.9991684,
    "name": "Vaughan "
  },
  "00VI": {
    "lat": 36.6632995605,
    "long": -80.49949646,
    "name": "Groundhog Mountain "
  },
  "00WA": {
    "lat": 47.1783981323,
    "long": -122.7720031738,
    "name": "Howell "
  },
  "00WI": {
    "lat": 44.3042984009,
    "long": -89.0501022339,
    "name": "Northern Lite "
  },
  "00WN": {
    "lat": 46.25,
    "long": -117.2490005493,
    "name": "Hawks Run "
  },
  "00WV": {
    "lat": 38.8288993835,
    "long": -79.8660964966,
    "name": "Lazy J. Aerodrome"
  },
  "00XS": {
    "lat": 33.0334014893,
    "long": -101.9339981079,
    "name": "L P Askew Farms "
  },
  "01AL": {
    "lat": 32.9459991455,
    "long": -86.5139007568,
    "name": "Ware Island "
  },
  "01CL": {
    "lat": 38.7999000549,
    "long": -120.7340011597,
    "name": "Swansboro Country "
  },
  "01FA": {
    "lat": 28.5893993378,
    "long": -81.144203186,
    "name": "Rybolt Ranch "
  },
  "01FL": {
    "lat": 28.7819004059,
    "long": -81.1592025757,
    "name": "Cedar Knoll Flying Ranch "
  },
  "01GE": {
    "lat": 32.6744003296,
    "long": -82.7711029053,
    "name": "The Farm "
  },
  "01IA": {
    "lat": 41.6610984802,
    "long": -90.7413024902,
    "name": "Stender "
  },
  "01ID": {
    "lat": 42.6082000732,
    "long": -112.0319976807,
    "name": "Lava Hot Springs "
  },
  "01II": {
    "lat": 39.8849983215,
    "long": -86.5066986084,
    "name": "Myers Field"
  },
  "01IS": {
    "lat": 39.0162010193,
    "long": -90.3181991577,
    "name": "William E. Koenig "
  },
  "01KS": {
    "lat": 38.540599823,
    "long": -97.0033035278,
    "name": "Flying N Ranch "
  },
  "01LA": {
    "lat": 32.638999939,
    "long": -91.7736968994,
    "name": "Barham "
  },
  "01LL": {
    "lat": 38.1258010864,
    "long": -89.4638977051,
    "name": "Schumaier Restricted Landing Area"
  },
  "01LS": {
    "lat": 30.7059993744,
    "long": -91.0774002075,
    "name": "Country Breeze "
  },
  "01MT": {
    "lat": 48.789100647,
    "long": -114.8799972534,
    "name": "Crystal Lakes Resort "
  },
  "01NC": {
    "lat": 34.4752998352,
    "long": -77.5813980103,
    "name": "Topsail Airpark"
  },
  "01NE": {
    "lat": 40.8436012268,
    "long": -100.6529998779,
    "name": "Detour "
  },
  "01NH": {
    "lat": 43.6445007324,
    "long": -72.0869979858,
    "name": "Moore Airfield"
  },
  "01NM": {
    "lat": 33.008611,
    "long": -104.540278,
    "name": "Champion Ranch "
  },
  "01NV": {
    "lat": 38.7639007568,
    "long": -119.0270004272,
    "name": "Lantana Ranch "
  },
  "01OK": {
    "lat": 35.2944984436,
    "long": -98.6364974976,
    "name": "Lawrence "
  },
  "01OR": {
    "lat": 43.1193008423,
    "long": -121.0449981689,
    "name": "Red & White Flying Service "
  },
  "01PN": {
    "lat": 40.9305992126,
    "long": -77.738899231,
    "name": "Bierly(Personal Use) "
  },
  "01PS": {
    "lat": 41.5959014893,
    "long": -76.0296020508,
    "name": "Nort's Resort "
  },
  "01SC": {
    "lat": 35.0321006775,
    "long": -81.2527999878,
    "name": "York "
  },
  "01TE": {
    "lat": 32.7375984192,
    "long": -96.4280014038,
    "name": "Smith Field"
  },
  "01TN": {
    "lat": 34.9958992004,
    "long": -89.7305984497,
    "name": "Colonial Air Park"
  },
  "01TX": {
    "lat": 32.3875999451,
    "long": -96.8775024414,
    "name": "Mims Farm Ultralightport"
  },
  "01UT": {
    "lat": 38.3083000183,
    "long": -109.3960037231,
    "name": "La Sal Junction "
  },
  "01VA": {
    "lat": 39.125,
    "long": -77.9250030518,
    "name": "Pickles "
  },
  "01WI": {
    "lat": 44.0099983215,
    "long": -90.3891983032,
    "name": "Prehn Cranberry Company "
  },
  "01WY": {
    "lat": 44.3471984863,
    "long": -104.8109970093,
    "name": "Keyhole "
  },
  "02AK": {
    "lat": 61.8768997192,
    "long": -150.0980072021,
    "name": "Rustic Wilderness "
  },
  "02AL": {
    "lat": 30.3715000153,
    "long": -87.7643966675,
    "name": "Bass Field"
  },
  "02AR": {
    "lat": 34.8224449158,
    "long": -92.4444198608,
    "name": "Three Rivers "
  },
  "02AZ": {
    "lat": 32.3763999939,
    "long": -109.93699646,
    "name": "Winchester Farm Airstrip"
  },
  "02CD": {
    "lat": 34.1296005249,
    "long": -90.5240020752,
    "name": "Shannon Field"
  },
  "02CL": {
    "lat": 34.761100769,
    "long": -119.0589981079,
    "name": "Conover Air Lodge "
  },
  "02CO": {
    "lat": 37.6432991028,
    "long": -106.04699707,
    "name": "Mc Cullough "
  },
  "02FA": {
    "lat": 28.5266990662,
    "long": -81.8748016357,
    "name": "Osborn Airfield"
  },
  "02FL": {
    "lat": 30.642778,
    "long": -86.123889,
    "name": "Cuchens "
  },
  "02GA": {
    "lat": 34.2025985718,
    "long": -83.4290008545,
    "name": "Doug Bolton Field"
  },
  "02GE": {
    "lat": 34.1753005981,
    "long": -84.9244003296,
    "name": "Etowah Fields "
  },
  "02ID": {
    "lat": 44.5555000305,
    "long": -115.3050003052,
    "name": "Morgan Ranch "
  },
  "02II": {
    "lat": 40.0623016357,
    "long": -86.2105026245,
    "name": "King Ultralightport"
  },
  "02IN": {
    "lat": 40.2089004517,
    "long": -85.540802002,
    "name": "Diamond P. Field"
  },
  "02KS": {
    "lat": 39.2221984863,
    "long": -96.0552978516,
    "name": "Jmj Landing "
  },
  "02ME": {
    "lat": 43.5373001099,
    "long": -70.929397583,
    "name": "Old Acton Airfield"
  },
  "02MI": {
    "lat": 43.1571006775,
    "long": -85.1484985352,
    "name": "Fairplains Airpark"
  },
  "02MN": {
    "lat": 48.6833000183,
    "long": -96.1920013428,
    "name": "Greenbush Municipal "
  },
  "02MO": {
    "lat": 39.0499992371,
    "long": -91.0335006714,
    "name": "Troy Airpark"
  },
  "02MS": {
    "lat": 34.1001014709,
    "long": -90.8468017578,
    "name": "Watts Field"
  },
  "02MT": {
    "lat": 47.2374000549,
    "long": -111.7419967651,
    "name": "Barrett Field"
  },
  "02MU": {
    "lat": 36.6542015076,
    "long": -93.7974014282,
    "name": "Timber Line Airpark"
  },
  "02NE": {
    "lat": 41.0745010376,
    "long": -96.9045028687,
    "name": "Benes Service "
  },
  "02NV": {
    "lat": 41.3032989502,
    "long": -118.5979995728,
    "name": "Paiute Meadows "
  },
  "02OH": {
    "lat": 41.3763999939,
    "long": -83.0832977295,
    "name": "Zimmerman "
  },
  "02OI": {
    "lat": 41.8019981384,
    "long": -80.5653991699,
    "name": "Murtha "
  },
  "02OR": {
    "lat": 45.6814994812,
    "long": -121.3160018921,
    "name": "Rowena Dell "
  },
  "02PS": {
    "lat": 41.9006004333,
    "long": -77.2303009033,
    "name": "Hughes Ultralightport"
  },
  "02SC": {
    "lat": 32.7584991455,
    "long": -81.2248001099,
    "name": "Harpers "
  },
  "02TN": {
    "lat": 35.7806015015,
    "long": -86.584197998,
    "name": "Ellis Field"
  },
  "02TX": {
    "lat": 33.3704032898,
    "long": -101.92288208,
    "name": "The Palms At Kitty Hawk "
  },
  "02UT": {
    "lat": 41.3662986755,
    "long": -113.8430023193,
    "name": "Lucin "
  },
  "02VA": {
    "lat": 38.4356994629,
    "long": -77.8572006226,
    "name": "The Greenhouse "
  },
  "02WA": {
    "lat": 47.1523017883,
    "long": -122.09400177,
    "name": "Cawleys South Prairie "
  },
  "02WI": {
    "lat": 45.0318984985,
    "long": -92.6557998657,
    "name": "Beer "
  },
  "02WN": {
    "lat": 48.7458000183,
    "long": -119.3190002441,
    "name": "Fowler Field"
  },
  "02XS": {
    "lat": 30.1476993561,
    "long": -97.6628036499,
    "name": "Seidel Ranch "
  },
  "03AZ": {
    "lat": 31.4333992004,
    "long": -110.0839996338,
    "name": "Thompson International Aviation "
  },
  "03CO": {
    "lat": 40.2125015259,
    "long": -104.744003296,
    "name": "Kugel-Strong "
  },
  "03FA": {
    "lat": 27.353099823,
    "long": -81.4080963135,
    "name": "Lake Persimmon Airstrip"
  },
  "03FD": {
    "lat": 30.8288002014,
    "long": -85.7310028076,
    "name": "Tharpe "
  },
  "03IA": {
    "lat": 41.5819015503,
    "long": -92.4613037109,
    "name": "East Field"
  },
  "03ID": {
    "lat": 44.7943000793,
    "long": -116.5329971313,
    "name": "Flying Y Ranch "
  },
  "03II": {
    "lat": 37.9620018005,
    "long": -87.7789001465,
    "name": "Davis Field Ultralightport"
  },
  "03IL": {
    "lat": 41.4023017883,
    "long": -87.8167037964,
    "name": "Wix "
  },
  "03IN": {
    "lat": 40.1800003052,
    "long": -86.0124969482,
    "name": "Heinzman "
  },
  "03KY": {
    "lat": 37.7916984558,
    "long": -87.5413970947,
    "name": "Flying H Farms "
  },
  "03MA": {
    "lat": 42.3931007385,
    "long": -72.5520019531,
    "name": "Hadley "
  },
  "03ME": {
    "lat": 44.0842018127,
    "long": -70.6272964478,
    "name": "Maple Ridge "
  },
  "03MN": {
    "lat": 43.6251983643,
    "long": -95.2247009277,
    "name": "Nauerth Land Ranch "
  },
  "03MO": {
    "lat": 37.8844985962,
    "long": -93.1315994263,
    "name": "Cahoochie "
  },
  "03MT": {
    "lat": 47.2708015442,
    "long": -111.7220001221,
    "name": "Cascade "
  },
  "03MU": {
    "lat": 38.4925003052,
    "long": -94.4124984741,
    "name": "Mc Donnell "
  },
  "03NC": {
    "lat": 34.1043014526,
    "long": -77.9041976929,
    "name": "Pilots Ridge "
  },
  "03ND": {
    "lat": 48.6263999939,
    "long": -97.8290023804,
    "name": "Olafson Brothers "
  },
  "03NE": {
    "lat": 41.5463981628,
    "long": -99.331199646,
    "name": "Hyde Ranch "
  },
  "03NV": {
    "lat": 40.584400177,
    "long": -115.297996521,
    "name": "Llama Ranch "
  },
  "03NY": {
    "lat": 40.9584007263,
    "long": -72.716796875,
    "name": "Talmage Field"
  },
  "03OH": {
    "lat": 41.4183998108,
    "long": -83.0174026489,
    "name": "Gibbs Field"
  },
  "03OK": {
    "lat": 36.0411987305,
    "long": -96.1613998413,
    "name": "Sahoma Lake "
  },
  "03OR": {
    "lat": 45.8554000854,
    "long": -117.4840011597,
    "name": "Powwatka Ridge "
  },
  "03PS": {
    "lat": 40.8499984741,
    "long": -77.9056015015,
    "name": "Ziggy's Field"
  },
  "03TA": {
    "lat": 30.2626991272,
    "long": -96.5001983643,
    "name": "Gay Hill Farm "
  },
  "03TE": {
    "lat": 27.4911003113,
    "long": -98.6695022583,
    "name": "Barronena Ranch "
  },
  "03UT": {
    "lat": 37.1208000183,
    "long": -109.986000061,
    "name": "A Z Minerals Corporation "
  },
  "03WA": {
    "lat": 47.4081993103,
    "long": -117.3720016479,
    "name": "Spangle Field"
  },
  "03WI": {
    "lat": 44.0275001526,
    "long": -88.880897522,
    "name": "Zink "
  },
  "03WN": {
    "lat": 45.875,
    "long": -120.6699981689,
    "name": "Aerostone Ranch "
  },
  "03XS": {
    "lat": 31.3180999756,
    "long": -100.7539978027,
    "name": "Creekside "
  },
  "04AZ": {
    "lat": 36.1542015076,
    "long": -109.5510025024,
    "name": "Chinle "
  },
  "04CA": {
    "lat": 34.5638999939,
    "long": -117.6750030518,
    "name": "Gray Butte Field"
  },
  "04CL": {
    "lat": 33.0816993713,
    "long": -116.4410018921,
    "name": "Hunt's Sky Ranch "
  },
  "04FA": {
    "lat": 25.5587005615,
    "long": -80.5150985718,
    "name": "Richards Field"
  },
  "04FL": {
    "lat": 29.2394008636,
    "long": -81.2220001221,
    "name": "Cross Creek Farms "
  },
  "04IA": {
    "lat": 41.0882987976,
    "long": -92.0546035767,
    "name": "Middlekoop "
  },
  "04ID": {
    "lat": 43.8777008057,
    "long": -116.5370025635,
    "name": "Lanham Field"
  },
  "04II": {
    "lat": 41.1305999756,
    "long": -84.994102478,
    "name": "Turkey Run "
  },
  "04IL": {
    "lat": 40.6375007629,
    "long": -89.0070037842,
    "name": "Schertz Aerial Service - Hudson "
  },
  "04IS": {
    "lat": 40.1786003113,
    "long": -88.5690002441,
    "name": "Van Gorder "
  },
  "04KY": {
    "lat": 37.1351013184,
    "long": -85.7893981934,
    "name": "Natchez Trace Farm "
  },
  "04LL": {
    "lat": 42.136100769,
    "long": -88.2875976563,
    "name": "Brunner "
  },
  "04ME": {
    "lat": 44.6666984558,
    "long": -69.8938980103,
    "name": "Beech Hill "
  },
  "04MI": {
    "lat": 42.5345001221,
    "long": -84.6283035278,
    "name": "Rapids Airway "
  },
  "04MN": {
    "lat": 47.9858016968,
    "long": -94.6868972778,
    "name": "Helblad "
  },
  "04MO": {
    "lat": 39.3012008667,
    "long": -91.451499939,
    "name": "Airpark Private "
  },
  "04MS": {
    "lat": 32.9396018982,
    "long": -90.8373031616,
    "name": "Nick's Flying Service Inc "
  },
  "04MT": {
    "lat": 47.1374977778,
    "long": -106.488095,
    "name": "Pluhar "
  },
  "04NE": {
    "lat": 41.1599998474,
    "long": -101.299003601,
    "name": "Mc Connell Field "
  },
  "04NJ": {
    "lat": 39.5968017578,
    "long": -75.2334976196,
    "name": "Emmanuel "
  },
  "04NV": {
    "lat": 35.7555007935,
    "long": -115.665000916,
    "name": "Kingston Ranch "
  },
  "04NY": {
    "lat": 42.262298584,
    "long": -73.6961975098,
    "name": "Klaverack "
  },
  "04OH": {
    "lat": 41.2476997375,
    "long": -81.1007003784,
    "name": "Bossow "
  },
  "04OR": {
    "lat": 44.7499008179,
    "long": -120.200996399,
    "name": "Collins Landing Strip"
  },
  "04TN": {
    "lat": 36.1833000183,
    "long": -82.6789016724,
    "name": "Hensley Airpark"
  },
  "04TX": {
    "lat": 31.7322006226,
    "long": -97.3688964844,
    "name": "Pocock "
  },
  "04UT": {
    "lat": 37.0083007812,
    "long": -110.794998169,
    "name": "Navajo Mountain "
  },
  "04VG": {
    "lat": 37.7144012451,
    "long": -77.2117996216,
    "name": "Manquin Flight Park Ultralightport"
  },
  "04VT": {
    "lat": 44.4011001587,
    "long": -72.2636032104,
    "name": "Lightning Bolt Field "
  },
  "04WA": {
    "lat": 47.5817985535,
    "long": -117.43699646,
    "name": "Ox Meadows "
  },
  "04WI": {
    "lat": 42.523399353,
    "long": -88.0167007446,
    "name": "Dutch Gap Airstrip"
  },
  "04WN": {
    "lat": 46.963889,
    "long": -119.641667,
    "name": "Stillwater Creek "
  },
  "05AK": {
    "lat": 61.66830063,
    "long": -149.1880035,
    "name": "Wasilla Creek Airpark"
  },
  "05AR": {
    "lat": 36.000633,
    "long": -93.57025,
    "name": "Ozark Skies Airpark"
  },
  "05CL": {
    "lat": 38.6106987,
    "long": -122.39099884,
    "name": "Pope Valley "
  },
  "05CO": {
    "lat": 40.2149839,
    "long": -104.9844228,
    "name": "Rancho De Aereo "
  },
  "05FA": {
    "lat": 30.9188995361,
    "long": -86.2182998657,
    "name": "Melanie's "
  },
  "05FL": {
    "lat": 26.5230998993,
    "long": -81.4083023071,
    "name": "Charlton Strip"
  },
  "05GA": {
    "lat": 32.0713996887,
    "long": -84.7144012451,
    "name": "Raju "
  },
  "05IA": {
    "lat": 43.1375007629,
    "long": -93.0682983398,
    "name": "Spotts Field"
  },
  "05ID": {
    "lat": 45.914100647,
    "long": -114.8359985352,
    "name": "Running Creek Ranch "
  },
  "05II": {
    "lat": 41.0287017822,
    "long": -84.9972000122,
    "name": "Reichhart "
  },
  "05IL": {
    "lat": 41.1567001343,
    "long": -88.0167007446,
    "name": "Classic Landings "
  },
  "05IN": {
    "lat": 39.641998291,
    "long": -86.5042037964,
    "name": "Cooper "
  },
  "05IS": {
    "lat": 39.7258987427,
    "long": -89.263999939,
    "name": "Hardy "
  },
  "05KS": {
    "lat": 37.2662010193,
    "long": -95.959197998,
    "name": "Darbro Field"
  },
  "05KY": {
    "lat": 37.53689957,
    "long": -84.40720367,
    "name": "Cartersville "
  },
  "05LA": {
    "lat": 32.2653007507,
    "long": -91.6977996826,
    "name": "Greg's Flying Service "
  },
  "05LS": {
    "lat": 31.252199173,
    "long": -92.4757995605,
    "name": "Grass Roots "
  },
  "05MD": {
    "lat": 39.2500991821,
    "long": -76.2052001953,
    "name": "Breezecroft "
  },
  "05ME": {
    "lat": 44.6570014954,
    "long": -67.5591964722,
    "name": "Drisko "
  },
  "05NE": {
    "lat": 41.7221984863,
    "long": -98.3089981079,
    "name": "Mc Kay "
  },
  "05OI": {
    "lat": 41.2883987427,
    "long": -81.962600708,
    "name": "Dorlon Airpark"
  },
  "05OK": {
    "lat": 35.8534011841,
    "long": -97.5674972534,
    "name": "Hawk Haven "
  },
  "05OR": {
    "lat": 45.4415016174,
    "long": -117.3509979248,
    "name": "Peacock Ranch "
  },
  "05PS": {
    "lat": 40.1427993774,
    "long": -77.8619003296,
    "name": "Mills Brothers "
  },
  "05TA": {
    "lat": 29.8090991974,
    "long": -96.2650985718,
    "name": "Brandes Air Field"
  },
  "05TE": {
    "lat": 30.7220993042,
    "long": -97.7913970947,
    "name": "Hilde-Griff Field"
  },
  "05TS": {
    "lat": 33.1292991638,
    "long": -97.3585968018,
    "name": "Dew Drop "
  },
  "05TX": {
    "lat": 32.1291999817,
    "long": -97.4041976929,
    "name": "Circle 'A' Ranch "
  },
  "05UT": {
    "lat": 37.0332984924,
    "long": -110.3170013428,
    "name": "Oljato "
  },
  "05VA": {
    "lat": 37.2242012024,
    "long": -78.4186019897,
    "name": "Providence "
  },
  "05WI": {
    "lat": 42.6511001587,
    "long": -88.7459030151,
    "name": "Ames Private "
  },
  "05WN": {
    "lat": 48.702222,
    "long": -118.0475,
    "name": "Flat Creek Field"
  },
  "05XS": {
    "lat": 33.0792999268,
    "long": -91.5431976318,
    "name": "Johnson Memorial "
  },
  "06AK": {
    "lat": 61.627619,
    "long": -149.575331,
    "name": "June Lake Airpark"
  },
  "06AR": {
    "lat": 35.5444984436,
    "long": -92.1848983765,
    "name": "Bondair "
  },
  "06CO": {
    "lat": 37.3875007629,
    "long": -103.6910018921,
    "name": "Jecan "
  },
  "06FA": {
    "lat": 26.9083995819,
    "long": -80.3289031982,
    "name": "William P Gwinn "
  },
  "06FD": {
    "lat": 28.6417007446,
    "long": -81.8850021362,
    "name": "Grass Roots Airpark"
  },
  "06IA": {
    "lat": 41.8414001465,
    "long": -91.8342971802,
    "name": "Rich Field"
  },
  "06ID": {
    "lat": 43.4626998901,
    "long": -116.3590011597,
    "name": "Larkin "
  },
  "06IL": {
    "lat": 41.5994987488,
    "long": -88.8699035645,
    "name": "Humm "
  },
  "06IN": {
    "lat": 39.2827987671,
    "long": -87.3035964966,
    "name": "Ellis Fly-In "
  },
  "06IS": {
    "lat": 40.5463981628,
    "long": -91.2742996216,
    "name": "Sinele Strip"
  },
  "06MN": {
    "lat": 47.6519012451,
    "long": -92.4167022705,
    "name": "Pike Field "
  },
  "06MO": {
    "lat": 39.2305984497,
    "long": -94.804397583,
    "name": "Noahs Ark "
  },
  "06MT": {
    "lat": 48.5583000183,
    "long": -112.1090011597,
    "name": "Torgerson "
  },
  "06NC": {
    "lat": 34.8274993896,
    "long": -78.9302978516,
    "name": "Tailwinds "
  },
  "06ND": {
    "lat": 46.7489013672,
    "long": -101.6689987183,
    "name": "Fitterer's Strip"
  },
  "06NH": {
    "lat": 42.9283981323,
    "long": -70.9730987549,
    "name": "Cole Farm "
  },
  "06NY": {
    "lat": 42.8428001404,
    "long": -76.4452972412,
    "name": "Murphy Field"
  },
  "06OH": {
    "lat": 41.5097999573,
    "long": -80.5912017822,
    "name": "Hal Joy Airfield"
  },
  "06OI": {
    "lat": 39.7347984314,
    "long": -84.3822021484,
    "name": "Green Acres "
  },
  "06OR": {
    "lat": 45.4650993347,
    "long": -123.0800018311,
    "name": "Hayden Mountain "
  },
  "06PA": {
    "lat": 42.0083999634,
    "long": -78.258102417,
    "name": "Freefall Oz "
  },
  "06R": {
    "lat": 29.9409722222,
    "long": -96.24525,
    "name": "Grawunder Field "
  },
  "06SN": {
    "lat": 37.5839004517,
    "long": -97.2530975342,
    "name": "Beyer Farm "
  },
  "06TA": {
    "lat": 30.9085006714,
    "long": -97.116897583,
    "name": "Glaser Field"
  },
  "06TE": {
    "lat": 30.3127002716,
    "long": -95.0269012451,
    "name": "Ainsworth "
  },
  "06TN": {
    "lat": 35.6972999573,
    "long": -86.9569015503,
    "name": "Hunter STOLport"
  },
  "06TS": {
    "lat": 32.1207008362,
    "long": -96.1791000366,
    "name": "Roscoe Mc Connico "
  },
  "06TX": {
    "lat": 30.0576000214,
    "long": -95.8128967285,
    "name": "Diamond N Ranch "
  },
  "06VA": {
    "lat": 38.2490005493,
    "long": -78.8553009033,
    "name": "Mount Horeb Field"
  },
  "06WI": {
    "lat": 45.6627006531,
    "long": -92.4502029419,
    "name": "Young Private "
  },
  "06WN": {
    "lat": 46.9249992371,
    "long": -122.5530014038,
    "name": "Western Airpark"
  },
  "06XS": {
    "lat": 33.3246994019,
    "long": -97.0441970825,
    "name": "Campbell Field"
  },
  "07AR": {
    "lat": 35.1944999695,
    "long": -92.800201416,
    "name": "Morrilton "
  },
  "07CL": {
    "lat": 39.4976997375,
    "long": -121.7710037231,
    "name": "Richvale "
  },
  "07CO": {
    "lat": 39.2635993958,
    "long": -104.4270019531,
    "name": "Comanche Creek "
  },
  "07FA": {
    "lat": 25.3253993988,
    "long": -80.2748031616,
    "name": "Ocean Reef Club "
  },
  "07FD": {
    "lat": 30.4179992676,
    "long": -83.2837982178,
    "name": "Flying G Ranch STOLport"
  },
  "07GA": {
    "lat": 33.6749992371,
    "long": -83.7630996704,
    "name": "Alcovy "
  },
  "07ID": {
    "lat": 42.2781982422,
    "long": -113.3050003052,
    "name": "Interstate "
  },
  "07IN": {
    "lat": 39.5736999512,
    "long": -85.9139022827,
    "name": "Gray "
  },
  "07KS": {
    "lat": 37.7341995239,
    "long": -96.9366989136,
    "name": "Heape Field"
  },
  "07KY": {
    "lat": 38.0806007385,
    "long": -85.6932983398,
    "name": "Blue Lick "
  },
  "07MD": {
    "lat": 39.6082992554,
    "long": -77.051902771,
    "name": "Baugher's Orchard "
  },
  "07MI": {
    "lat": 43.864200592,
    "long": -85.0239028931,
    "name": "Scott Airstrip"
  },
  "07MN": {
    "lat": 44.0550003052,
    "long": -95.9095001221,
    "name": "Dairyview "
  },
  "07MO": {
    "lat": 38.6500015259,
    "long": -93.616897583,
    "name": "Lake Sexton "
  },
  "07MT": {
    "lat": 48.4211006165,
    "long": -106.5279998779,
    "name": "Glasgow Industrial "
  },
  "07NC": {
    "lat": 34.8331985474,
    "long": -80.7511978149,
    "name": "Hawks Meadow "
  },
  "07OK": {
    "lat": 34.6333999634,
    "long": -99.0336990356,
    "name": "Pleasant Valley "
  },
  "07OR": {
    "lat": 45.4217987061,
    "long": -122.6200027466,
    "name": "Bruce's "
  },
  "07PN": {
    "lat": 40.998889,
    "long": -78.125278,
    "name": "Folmar "
  },
  "07SN": {
    "lat": 39.7728004456,
    "long": -99.3600997925,
    "name": "Churchill "
  },
  "07TA": {
    "lat": 29.2404994965,
    "long": -95.3447036743,
    "name": "Salaika Aviation "
  },
  "07TE": {
    "lat": 27.7210998535,
    "long": -97.512802124,
    "name": "Cuddihy Field"
  },
  "07TN": {
    "lat": 35.5685997009,
    "long": -84.2410964966,
    "name": "Corntassel "
  },
  "07TS": {
    "lat": 30.625,
    "long": -97.5727996826,
    "name": "Cross-Country Estates "
  },
  "07VA": {
    "lat": 36.8195991516,
    "long": -78.7830963135,
    "name": "Alpha Hotel "
  },
  "07VT": {
    "lat": 44.4472007751,
    "long": -72.9147033691,
    "name": "Meadow STOLport"
  },
  "07WI": {
    "lat": 42.9653015137,
    "long": -88.3915023804,
    "name": "Bartell Strip"
  },
  "08AK": {
    "lat": 61.569639,
    "long": -149.724439,
    "name": "Fisher "
  },
  "08CL": {
    "lat": 37.8596000671,
    "long": -120.5540008545,
    "name": "Kistler Ranch "
  },
  "08CO": {
    "lat": 38.7324981689,
    "long": -104.0410003662,
    "name": "Terra Firma "
  },
  "08FA": {
    "lat": 26.5797996521,
    "long": -81.4837036133,
    "name": "Duda Airstrip"
  },
  "08FD": {
    "lat": 27.3631000519,
    "long": -80.7727966309,
    "name": "Sunniland Ranch "
  },
  "08FL": {
    "lat": 27.0844993591,
    "long": -81.3286972046,
    "name": "J. H. Hendrie Farms "
  },
  "08GA": {
    "lat": 31.4258003235,
    "long": -81.2858963013,
    "name": "Sapelo Island "
  },
  "08ID": {
    "lat": 43.5693016052,
    "long": -116.7770004272,
    "name": "Symms "
  },
  "08IL": {
    "lat": 41.5769996643,
    "long": -89.7939987183,
    "name": "Harms Airstrip"
  },
  "08IS": {
    "lat": 37.9777984619,
    "long": -89.2029037476,
    "name": "Hemmer RLA Restricted Landing Area"
  },
  "08KS": {
    "lat": 39.0346984863,
    "long": -97.5800018311,
    "name": "Alderson "
  },
  "08KY": {
    "lat": 36.9725990295,
    "long": -84.6260986328,
    "name": "Boss "
  },
  "08LL": {
    "lat": 41.0752983093,
    "long": -88.4891967773,
    "name": "Sauer "
  },
  "08LS": {
    "lat": 30.4036006927,
    "long": -92.0235977173,
    "name": "Aeleron "
  },
  "08MA": {
    "lat": 42.2939987183,
    "long": -71.4962005615,
    "name": "Wormid "
  },
  "08ME": {
    "lat": 44.814201355,
    "long": -70.3452987671,
    "name": "Lindbergh "
  },
  "08MO": {
    "lat": 37.3955993652,
    "long": -94.2837982178,
    "name": "Twin Oaks "
  },
  "08MS": {
    "lat": 34.66220093,
    "long": -89.86830139,
    "name": "Williams Field"
  },
  "08MT": {
    "lat": 47.0638999939,
    "long": -108.8170013428,
    "name": "Clark "
  },
  "08NC": {
    "lat": 36.0676002502,
    "long": -80.4655990601,
    "name": "Whiteheart Farm "
  },
  "08ND": {
    "lat": 47.3231010437,
    "long": -102.0979995728,
    "name": "Brecht Strip"
  },
  "08NE": {
    "lat": 42.4317016602,
    "long": -97.079498291,
    "name": "Laurel Municipal "
  },
  "08NY": {
    "lat": 41.3680992126,
    "long": -74.5055999756,
    "name": "Md1 "
  },
  "08OH": {
    "lat": 41.2916984558,
    "long": -80.5636978149,
    "name": "Kenley "
  },
  "08OK": {
    "lat": 34.9314994812,
    "long": -95.2583007813,
    "name": "Parks "
  },
  "08OR": {
    "lat": 42.8392982483,
    "long": -121.1169967651,
    "name": "Saxon Sycan "
  },
  "08TE": {
    "lat": 29.9759998322,
    "long": -98.743598938,
    "name": "B. J. Mc Combs Sisterdale "
  },
  "08TS": {
    "lat": 26.8878002167,
    "long": -98.5072021484,
    "name": "Puesta Del Sol "
  },
  "08TX": {
    "lat": 32.8582000732,
    "long": -97.7474975586,
    "name": "Cross Wind "
  },
  "08VA": {
    "lat": 37.5540008545,
    "long": -79.7498016357,
    "name": "Springwood Airstrip"
  },
  "08XS": {
    "lat": 29.1081008911,
    "long": -95.7774963379,
    "name": "Peterson "
  },
  "09AK": {
    "lat": 61.589361,
    "long": -149.847333,
    "name": "West Beaver "
  },
  "09AZ": {
    "lat": 31.9253005981,
    "long": -110.0380020142,
    "name": "Stronghold "
  },
  "09CL": {
    "lat": 39.1138000488,
    "long": -121.0569992065,
    "name": "Alta Sierra "
  },
  "09CO": {
    "lat": 38.0555992126,
    "long": -103.6529998779,
    "name": "Cottonwood Field"
  },
  "09FA": {
    "lat": 27.2455997467,
    "long": -81.4131011963,
    "name": "Placid Lakes "
  },
  "09FD": {
    "lat": 28.6711006165,
    "long": -82.0873031616,
    "name": "Cheryl-Lane Landings "
  },
  "09FL": {
    "lat": 27.0555992126,
    "long": -81.9705963135,
    "name": "Sunnybreeze "
  },
  "09GA": {
    "lat": 31.1112995148,
    "long": -83.68409729,
    "name": "Sunbelt Strip"
  },
  "09IA": {
    "lat": 41.7458000183,
    "long": -92.4093017578,
    "name": "Skydive Iowa "
  },
  "09ID": {
    "lat": 45.1039009094,
    "long": -114.8550033569,
    "name": "Taylor Ranch Landing Area "
  },
  "09II": {
    "lat": 38.4472999573,
    "long": -86.4449996948,
    "name": "Gibbons Field"
  },
  "09IN": {
    "lat": 41.1208992004,
    "long": -85.4250030518,
    "name": "Gordon "
  },
  "09KS": {
    "lat": 38.7070007324,
    "long": -95.1382980347,
    "name": "Coffman "
  },
  "09LL": {
    "lat": 42.4681015015,
    "long": -88.7432022095,
    "name": "Pine Hill "
  },
  "09MA": {
    "lat": 42.3042984009,
    "long": -71.505897522,
    "name": "Kallander Field"
  },
  "09ME": {
    "lat": 43.340801239,
    "long": -70.8546981812,
    "name": "Perrotti Skyranch Airfield"
  },
  "09MN": {
    "lat": 44.7799987793,
    "long": -95.6635971069,
    "name": "W Johnson Field"
  },
  "09MO": {
    "lat": 37.3783988953,
    "long": -93.3632965088,
    "name": "Hogue Farm "
  },
  "09NC": {
    "lat": 35.3292999268,
    "long": -79.0299987793,
    "name": "William Irving Lewis "
  },
  "09NE": {
    "lat": 41.3333015442,
    "long": -96.1936035156,
    "name": "Summer Hill Farm "
  },
  "09OK": {
    "lat": 36.3544998169,
    "long": -95.863899231,
    "name": "Ragtime Aerodrome"
  },
  "09PA": {
    "lat": 40.8269996643,
    "long": -77.9880981445,
    "name": "Eagle Field"
  },
  "09TA": {
    "lat": 33.2821006775,
    "long": -97.4970016479,
    "name": "Lazy G Bar Ranch "
  },
  "09TE": {
    "lat": 32.2667999268,
    "long": -97.8669967651,
    "name": "Running M Ranch "
  },
  "09TS": {
    "lat": 29.4824008942,
    "long": -103.1650009155,
    "name": "Pitcock Rosillos Mountain Ranch "
  },
  "09TX": {
    "lat": 30.7390995026,
    "long": -102.0240020752,
    "name": "Smokey Mtn Ranch "
  },
  "09VA": {
    "lat": 36.9765014648,
    "long": -80.4938964844,
    "name": "Alum Ridge STOLport"
  },
  "09WI": {
    "lat": 44.0036010742,
    "long": -91.3076019287,
    "name": "Parkway Farm Strip"
  },
  "0AK0": {
    "lat": 64.3925018311,
    "long": -146.8619995117,
    "name": "Scotts "
  },
  "0AK1": {
    "lat": 61.6169013977,
    "long": -149.3220062256,
    "name": "Anderson Lake "
  },
  "0AK2": {
    "lat": 61.725556,
    "long": -150.678611,
    "name": "Yentna Bend Strip"
  },
  "0AK3": {
    "lat": 62.035900116,
    "long": -150.4940032959,
    "name": "Parker Lake "
  },
  "0AK5": {
    "lat": 61.3564987183,
    "long": -142.733001709,
    "name": "Young Creek "
  },
  "0AK6": {
    "lat": 61.8033981323,
    "long": -147.9440002441,
    "name": "Victory "
  },
  "0AK7": {
    "lat": 59.7761001587,
    "long": -150.9589996338,
    "name": "Bradley Lake Hydroelectri Project Airstrip"
  },
  "0AK9": {
    "lat": 61.3325996399,
    "long": -150.0590057373,
    "name": "Falcon Lake Strip"
  },
  "0AL1": {
    "lat": 30.4438991547,
    "long": -87.6568984985,
    "name": "Resort "
  },
  "0AL5": {
    "lat": 31.0321998596,
    "long": -87.2527999878,
    "name": "Flomaton "
  },
  "0AL9": {
    "lat": 34.8499984741,
    "long": -87.6324996948,
    "name": "Wilson Creek "
  },
  "0AR1": {
    "lat": 35.0946998596,
    "long": -93.202003479,
    "name": "Hooterville South "
  },
  "0AR2": {
    "lat": 35.2667999268,
    "long": -90.3500976563,
    "name": "Mission Field-Marotti Memorial "
  },
  "0AR3": {
    "lat": 35.8989982605,
    "long": -93.2610015869,
    "name": "Taylor's Air Strip"
  },
  "0AR7": {
    "lat": 33.9500999451,
    "long": -91.1811981201,
    "name": "Yancopin "
  },
  "0AZ1": {
    "lat": 32.3008995056,
    "long": -111.3239974976,
    "name": "Taylor Field"
  },
  "0AZ2": {
    "lat": 33.7780990601,
    "long": -113.641998291,
    "name": "Western Sky "
  },
  "0AZ4": {
    "lat": 32.9822998047,
    "long": -112.2870025635,
    "name": "Flying Bucket Ranch "
  },
  "0AZ5": {
    "lat": 33.8658981323,
    "long": -112.6029968262,
    "name": "Castle Well "
  },
  "0CA1": {
    "lat": 34.9883003235,
    "long": -120.4580001831,
    "name": "Northside Airpark"
  },
  "0CA3": {
    "lat": 34.5875015259,
    "long": -120.0130004883,
    "name": "Crawford "
  },
  "0CA4": {
    "lat": 34.6222000122,
    "long": -120.0650024414,
    "name": "Shepherd Ranch "
  },
  "0CA5": {
    "lat": 33.1431007385,
    "long": -116.7450027466,
    "name": "Hoffman Private "
  },
  "0CA6": {
    "lat": 32.7494444,
    "long": -116.0161111,
    "name": "Emory Ranch "
  },
  "0CA8": {
    "lat": 33.4277992249,
    "long": -116.843002319,
    "name": "Ward Ranch "
  },
  "0CA9": {
    "lat": 35.5950012207,
    "long": -120.338996887,
    "name": "Blech Ranch "
  },
  "0CD2": {
    "lat": 38.6525001526,
    "long": -104.23400116,
    "name": "Foxx Valley "
  },
  "0CD5": {
    "lat": 37.4905014038,
    "long": -104.143997192,
    "name": "Pinon Canyon "
  },
  "0CD7": {
    "lat": 40.004699707,
    "long": -105.071998596,
    "name": "Fox Hole "
  },
  "0CL0": {
    "lat": 37.1180000305,
    "long": -119.913002014,
    "name": "Yosemite Hidden Lake Ranch "
  },
  "0CL1": {
    "lat": 34.5694007874,
    "long": -117.555999756,
    "name": "Krey Field "
  },
  "0CL3": {
    "lat": 32.6330986023,
    "long": -116.892997742,
    "name": "John Nichol's Field "
  },
  "0CL6": {
    "lat": 34.6946983337,
    "long": -118.282997131,
    "name": "Bohunk's Airpark"
  },
  "0CL8": {
    "lat": 35.5913009644,
    "long": -117.634002686,
    "name": "Tera Ultralightport"
  },
  "0CO1": {
    "lat": 40.0332984924,
    "long": -105.124000549,
    "name": "Dave's "
  },
  "0CO2": {
    "lat": 38.8518981934,
    "long": -106.932998657,
    "name": "Buckhorn Ranch "
  },
  "0CO3": {
    "lat": 39.8894004822,
    "long": -104.544998169,
    "name": "Greggs Nr 1 "
  },
  "0CO5": {
    "lat": 39.8333015442,
    "long": -103.589996338,
    "name": "Chenoweth "
  },
  "0CO6": {
    "lat": 38.2193984985,
    "long": -108.212997437,
    "name": "Flying M & M Ranch "
  },
  "0CO8": {
    "lat": 40.2083015442,
    "long": -105.013000488,
    "name": "Cartwheel "
  },
  "0CO9": {
    "lat": 37.6582984924,
    "long": -106.033996582,
    "name": "Van Treese "
  },
  "0FA1": {
    "lat": 27.303899765,
    "long": -81.8804016113,
    "name": "Frierson Grove "
  },
  "0FD0": {
    "lat": 29.2674999237,
    "long": -81.2301025391,
    "name": "Big 'G' "
  },
  "0FD3": {
    "lat": 30.4964008331,
    "long": -86.0938034058,
    "name": "Dugger Field"
  },
  "0FD5": {
    "lat": 30.8201999664,
    "long": -86.3443984985,
    "name": "Breezy Knoll "
  },
  "0FD9": {
    "lat": 30.6520996094,
    "long": -86.1093978882,
    "name": "Joy Farms "
  },
  "0FL0": {
    "lat": 26.7306003571,
    "long": -81.1639022827,
    "name": "Harper's Fly-In Ranch "
  },
  "0FL1": {
    "lat": 29.9832992554,
    "long": -82.8356018066,
    "name": "Thompson Airfield"
  },
  "0FL6": {
    "lat": 27.8059005737,
    "long": -82.1400985718,
    "name": "Stanchester "
  },
  "0FL9": {
    "lat": 26.3938999176,
    "long": -81.0231018066,
    "name": "Mc Daniel Ranch Inc. "
  },
  "0GA0": {
    "lat": 33.3562011719,
    "long": -84.3671035767,
    "name": "Halls Flying Ranch "
  },
  "0GA1": {
    "lat": 34.4779014587,
    "long": -82.897102356,
    "name": "Mustang Field"
  },
  "0GA2": {
    "lat": 34.3778991699,
    "long": -82.9457015991,
    "name": "Airnautique Inc. "
  },
  "0GA3": {
    "lat": 33.7700996399,
    "long": -85.060798645,
    "name": "Ayresouth "
  },
  "0GA4": {
    "lat": 33.8129005432,
    "long": -83.5056991577,
    "name": "Paradise Falls "
  },
  "0GA6": {
    "lat": 33.7333984375,
    "long": -83.8188018799,
    "name": "Sunset Strip"
  },
  "0GA7": {
    "lat": 33.6833992004,
    "long": -84.9999008179,
    "name": "Hickory Level Airfield"
  },
  "0GA8": {
    "lat": 30.8871002197,
    "long": -83.4160003662,
    "name": "Paso Fino Farm "
  },
  "0GA9": {
    "lat": 32.7139015198,
    "long": -84.0274963379,
    "name": "Roberta Industrial Park "
  },
  "0GE0": {
    "lat": 33.7821006775,
    "long": -84.8007965088,
    "name": "Pinewood "
  },
  "0GE1": {
    "lat": 31.6655006409,
    "long": -83.4470977783,
    "name": "Crystal Lake Airpark"
  },
  "0GE3": {
    "lat": 34.9047012329,
    "long": -85.4597015381,
    "name": "Lookout Mountain "
  },
  "0GE4": {
    "lat": 33.331401825,
    "long": -84.2667007446,
    "name": "Pecan Patch Airstrip"
  },
  "0GE5": {
    "lat": 34.5617980957,
    "long": -83.7135009766,
    "name": "Mountain Airpark"
  },
  "0GE7": {
    "lat": 33.5203018188,
    "long": -82.3724975586,
    "name": "Carpenter "
  },
  "0GE9": {
    "lat": 32.693901062,
    "long": -81.7985992432,
    "name": "Pegasus Ranch "
  },
  "0IA3": {
    "lat": 42.4347000122,
    "long": -92.3280029297,
    "name": "Hawkeye "
  },
  "0IA4": {
    "lat": 41.0334014893,
    "long": -91.0501022339,
    "name": "Sharar Field"
  },
  "0IA5": {
    "lat": 40.8722000122,
    "long": -93.2627029419,
    "name": "Moore Private "
  },
  "0IA6": {
    "lat": 41.6596984863,
    "long": -92.2899017334,
    "name": "Rinehart "
  },
  "0IA8": {
    "lat": 42.2280006409,
    "long": -91.7509994507,
    "name": "Hannen "
  },
  "0ID0": {
    "lat": 43.6063995361,
    "long": -115.1070022583,
    "name": "South Fork Ranch "
  },
  "0ID1": {
    "lat": 42.6412010193,
    "long": -114.6050033569,
    "name": "Ziggy's "
  },
  "0ID2": {
    "lat": 44.4429016113,
    "long": -113.773002625,
    "name": "Flying Joseph Ranch "
  },
  "0ID3": {
    "lat": 43.0758018494,
    "long": -115.672996521,
    "name": "Coyote Run "
  },
  "0ID4": {
    "lat": 43.0476989746,
    "long": -114.4700012207,
    "name": "Black Butte Ranch "
  },
  "0ID5": {
    "lat": 43.0531005859,
    "long": -116.4619979858,
    "name": "Ez Lope Ranch "
  },
  "0ID7": {
    "lat": 43.230308,
    "long": -116.763192,
    "name": "Z X Ranch "
  },
  "0ID8": {
    "lat": 45.775197,
    "long": -116.178475,
    "name": "Pinnacle "
  },
  "0II0": {
    "lat": 40.2599983215,
    "long": -85.2533035278,
    "name": "Chuck's "
  },
  "0II1": {
    "lat": 40.4281005859,
    "long": -86.1532974243,
    "name": "Unsicker "
  },
  "0II2": {
    "lat": 41.4572982788,
    "long": -86.1243972778,
    "name": "Creighton "
  },
  "0II3": {
    "lat": 40.6277999878,
    "long": -86.0378036499,
    "name": "Miller Strip"
  },
  "0II5": {
    "lat": 40.6595001221,
    "long": -86.8572006226,
    "name": "Marshall Field"
  },
  "0II6": {
    "lat": 41.6431007385,
    "long": -85.8296966553,
    "name": "Kropf "
  },
  "0II7": {
    "lat": 39.7956008911,
    "long": -85.7861022949,
    "name": "Frost Field"
  },
  "0II8": {
    "lat": 41.324798584,
    "long": -87.4758987427,
    "name": "Sutton's Field"
  },
  "0II9": {
    "lat": 39.534198761,
    "long": -86.5772018433,
    "name": "Winters "
  },
  "0IL2": {
    "lat": 38.803056,
    "long": -88.997778,
    "name": "Griffin "
  },
  "0IL3": {
    "lat": 40.1570014954,
    "long": -87.6744995117,
    "name": "Flying B Ranch "
  },
  "0IL8": {
    "lat": 41.8725013733,
    "long": -88.7237014771,
    "name": "Walter "
  },
  "0IL9": {
    "lat": 41.854801178,
    "long": -88.7873001099,
    "name": "Jack W. Watson "
  },
  "0IN1": {
    "lat": 38.5,
    "long": -87.5959014893,
    "name": "Snider Field"
  },
  "0IN2": {
    "lat": 40.8278007507,
    "long": -85.0860977173,
    "name": "The Lazy K "
  },
  "0IN3": {
    "lat": 41.1166992188,
    "long": -86.6667022705,
    "name": "Graves Landing Strip"
  },
  "0IN4": {
    "lat": 41.1277999878,
    "long": -84.9471969604,
    "name": "Air Park Field"
  },
  "0IN5": {
    "lat": 38.3289985657,
    "long": -86.0335998535,
    "name": "Byrne Field"
  },
  "0IN9": {
    "lat": 37.9930992126,
    "long": -87.9514007568,
    "name": "Parrish "
  },
  "0IS3": {
    "lat": 41.6608009338,
    "long": -89.6936035156,
    "name": "Cady Aerial RLA Restricted Landing Area"
  },
  "0IS4": {
    "lat": 39.7625007629,
    "long": -88.6715011597,
    "name": "Dawson Farms "
  },
  "0KS0": {
    "lat": 38.6333007813,
    "long": -95.9253005981,
    "name": "J V Ranch "
  },
  "0KS2": {
    "lat": 38.5600013733,
    "long": -95.30909729,
    "name": "Kellie Mann Airfield"
  },
  "0KS3": {
    "lat": 38.5666999817,
    "long": -95.366897583,
    "name": "Camp Chippewa "
  },
  "0KS4": {
    "lat": 38.807239,
    "long": -95.370056,
    "name": "Norris "
  },
  "0KS6": {
    "lat": 37.4522018433,
    "long": -97.3178024292,
    "name": "Kendrigan "
  },
  "0KS7": {
    "lat": 37.6927986145,
    "long": -97.8863983154,
    "name": "Mono Aircraft "
  },
  "0KS8": {
    "lat": 37.3824996948,
    "long": -95.3747024536,
    "name": "Pearce Field"
  },
  "0KS9": {
    "lat": 37.5158996582,
    "long": -96.9197998047,
    "name": "Lmn 120 "
  },
  "0KY0": {
    "lat": 38.6227989197,
    "long": -84.7789001465,
    "name": "Owen Air Park"
  },
  "0KY1": {
    "lat": 36.7655982971,
    "long": -86.6183013916,
    "name": "Arnemann Farms "
  },
  "0KY4": {
    "lat": 37.5643997192,
    "long": -87.0819015503,
    "name": "Cambron Field"
  },
  "0KY5": {
    "lat": 36.8125,
    "long": -86.375,
    "name": "Falin Landing Strip"
  },
  "0KY7": {
    "lat": 36.636100769,
    "long": -88.9985961914,
    "name": "Clinton-Hickman County "
  },
  "0KY8": {
    "lat": 37.1171989441,
    "long": -83.7360992432,
    "name": "Sky "
  },
  "0LA1": {
    "lat": 30.2294006348,
    "long": -90.9733963013,
    "name": "Double H Ranch "
  },
  "0LA2": {
    "lat": 30.2779998779,
    "long": -90.9632034302,
    "name": "Don Babin-Private "
  },
  "0LA3": {
    "lat": 32.7492980957,
    "long": -93.8734970093,
    "name": "Belcher Airpatch "
  },
  "0LA9": {
    "lat": 30.5862998962,
    "long": -90.8615036011,
    "name": "Rebel Field"
  },
  "0LL0": {
    "lat": 42.2647018433,
    "long": -88.7300033569,
    "name": "Kaufield "
  },
  "0LL1": {
    "lat": 39.0942001343,
    "long": -90.3134002686,
    "name": "Jerseyville Aviation Inc "
  },
  "0LL2": {
    "lat": 40.738899231,
    "long": -90.3806991577,
    "name": "Murk's Strip"
  },
  "0LL3": {
    "lat": 39.0550003052,
    "long": -90.3421020508,
    "name": "Koenig "
  },
  "0LL4": {
    "lat": 41.4192008972,
    "long": -89.1231002808,
    "name": "Flaherty Field"
  },
  "0LL5": {
    "lat": 40.1100006104,
    "long": -88.0783996582,
    "name": "Busboom RLA Restricted Landing Area"
  },
  "0LL6": {
    "lat": 41.6983985901,
    "long": -88.6075973511,
    "name": "Gord "
  },
  "0LS0": {
    "lat": 29.7497005463,
    "long": -90.7358016968,
    "name": "Theriot Field"
  },
  "0LS4": {
    "lat": 30.8087005615,
    "long": -92.18800354,
    "name": "Buller's Airstrip"
  },
  "0LS5": {
    "lat": 30.3069000244,
    "long": -92.1297988892,
    "name": "Trahan Ultralightport"
  },
  "0LS6": {
    "lat": 30.7877006531,
    "long": -92.0503997803,
    "name": "Dufour "
  },
  "0LS7": {
    "lat": 30.6128005981,
    "long": -91.4841995239,
    "name": "Morgan Field"
  },
  "0LS8": {
    "lat": 30.2858009338,
    "long": -92.9412994385,
    "name": "Lonesome Dove Airfield"
  },
  "0LS9": {
    "lat": 32.5042991638,
    "long": -91.9821014404,
    "name": "Huenefeld "
  },
  "0MD1": {
    "lat": 39.1873016357,
    "long": -75.7927017212,
    "name": "Taylor Field"
  },
  "0MD2": {
    "lat": 38.2878990173,
    "long": -76.8675003052,
    "name": "Squier Landing "
  },
  "0MD4": {
    "lat": 39.2667999268,
    "long": -76.1872024536,
    "name": "Pond View Private "
  },
  "0MD6": {
    "lat": 39.3811988831,
    "long": -77.105796814,
    "name": "Walters "
  },
  "0ME4": {
    "lat": 44.742469,
    "long": -68.474403,
    "name": "Peasley Field"
  },
  "0MI1": {
    "lat": 44.1403007507,
    "long": -84.4375,
    "name": "Sugar Springs "
  },
  "0MI2": {
    "lat": 44.5222015381,
    "long": -83.6832962036,
    "name": "Stier Airstrip"
  },
  "0MI3": {
    "lat": 44.6333999634,
    "long": -84.4833984375,
    "name": "Kelleys "
  },
  "0MI4": {
    "lat": 46.270198822,
    "long": -87.3864974976,
    "name": "Lesterson Field"
  },
  "0MI6": {
    "lat": 46.3875007629,
    "long": -85.1839981079,
    "name": "Young's "
  },
  "0MI8": {
    "lat": 44.9000015259,
    "long": -84.3000030518,
    "name": "Twin Lakes "
  },
  "0MN1": {
    "lat": 44.2625007629,
    "long": -94.0697021484,
    "name": "Brinkman "
  },
  "0MN5": {
    "lat": 44.3072013855,
    "long": -94.9169006348,
    "name": "Pankratz "
  },
  "0MN6": {
    "lat": 43.6622009277,
    "long": -92.404296875,
    "name": "Matson Field"
  },
  "0MN8": {
    "lat": 45.135799408,
    "long": -92.8593978882,
    "name": "Keller "
  },
  "0MO0": {
    "lat": 38.4103012085,
    "long": -93.8501968384,
    "name": "Ferros Ranch-Aero "
  },
  "0MO1": {
    "lat": 38.5444984436,
    "long": -94.0947036743,
    "name": "Flying G "
  },
  "0MO2": {
    "lat": 37.7867012024,
    "long": -90.7800979614,
    "name": "Short-N-Ruff "
  },
  "0MO3": {
    "lat": 38.4402999878,
    "long": -94.5932998657,
    "name": "Arvin Ranch "
  },
  "0MO5": {
    "lat": 40.1333999634,
    "long": -92.1001968384,
    "name": "Joe D Lewis "
  },
  "0MO6": {
    "lat": 40.1166992188,
    "long": -92.2668991089,
    "name": "Hall "
  },
  "0MO8": {
    "lat": 39.1405982971,
    "long": -90.7368011475,
    "name": "Sloan's "
  },
  "0MS0": {
    "lat": 32.4749984741,
    "long": -88.6166992188,
    "name": "Topton Air Estates "
  },
  "0MS1": {
    "lat": 31.4251995087,
    "long": -90.9029006958,
    "name": "Franklin Field"
  },
  "0MS2": {
    "lat": 31.5417995453,
    "long": -89.3917007446,
    "name": "Morgan Field"
  },
  "0MS5": {
    "lat": 33.3917999268,
    "long": -90.9168014526,
    "name": "Lewis Air Service "
  },
  "0MS7": {
    "lat": 34.3426017761,
    "long": -89.1430969238,
    "name": "Hale Field"
  },
  "0MS8": {
    "lat": 33.6992988586,
    "long": -91.1651000977,
    "name": "Catfish Point "
  },
  "0MS9": {
    "lat": 33.8007011414,
    "long": -89.0272979736,
    "name": "Shenandoah Valley Farms "
  },
  "0MT1": {
    "lat": 47.4975013733,
    "long": -112.3909988403,
    "name": "Williams Field"
  },
  "0MT4": {
    "lat": 46.2785987854,
    "long": -114.1409988403,
    "name": "Kimp "
  },
  "0MT5": {
    "lat": 45.6342010498,
    "long": -108.8489990234,
    "name": "Cottonwood "
  },
  "0MT6": {
    "lat": 48.040599823,
    "long": -114.6790008545,
    "name": "Hanson "
  },
  "0MT7": {
    "lat": 47.6608009338,
    "long": -115.4039993286,
    "name": "Pinehurst Ranch "
  },
  "0MT9": {
    "lat": 48.4832992554,
    "long": -114.4929962158,
    "name": "Lone Hawk "
  },
  "0MU0": {
    "lat": 37.2346992493,
    "long": -91.0935974121,
    "name": "Eagle Field"
  },
  "0MU1": {
    "lat": 37.2467002869,
    "long": -94.1738967896,
    "name": "Sunderland "
  },
  "0MU4": {
    "lat": 39.6161003113,
    "long": -92.866897583,
    "name": "Slaughter "
  },
  "0MU7": {
    "lat": 38.875,
    "long": -94.1397018433,
    "name": "Lambs Field"
  },
  "0MU8": {
    "lat": 37.4387016296,
    "long": -89.7590026855,
    "name": "Prince STOLport"
  },
  "0NA1": {
    "lat": 46.2454986572,
    "long": -97.0375976563,
    "name": "Goerger "
  },
  "0NA5": {
    "lat": 48.0010986328,
    "long": -99.5628967285,
    "name": "Sorlie "
  },
  "0NA9": {
    "lat": 46.75,
    "long": -103.8010025024,
    "name": "Boyd's Turf "
  },
  "0NC1": {
    "lat": 35.4570999146,
    "long": -82.3753967285,
    "name": "Bearwallow Farm "
  },
  "0NC7": {
    "lat": 36.3572006226,
    "long": -79.9974975586,
    "name": "Lindsay "
  },
  "0NC8": {
    "lat": 35.7556991577,
    "long": -80.7352981567,
    "name": "Double Creek Ranch "
  },
  "0ND0": {
    "lat": 47.9291992188,
    "long": -99.4003982544,
    "name": "Gilbertson Field"
  },
  "0ND6": {
    "lat": 46.0550003052,
    "long": -99.917098999,
    "name": "Schumacher Strip"
  },
  "0ND7": {
    "lat": 46.4653015137,
    "long": -100.1050033569,
    "name": "Saville Private "
  },
  "0NE0": {
    "lat": 41.8499984741,
    "long": -101.9499969482,
    "name": "Merrihew "
  },
  "0NE1": {
    "lat": 42.4071998596,
    "long": -101.9319992065,
    "name": "Runner Landing Area "
  },
  "0NE2": {
    "lat": 41.8666000366,
    "long": -101.9169998169,
    "name": "Merry "
  },
  "0NE5": {
    "lat": 41.0210990906,
    "long": -102.0179977417,
    "name": "Newman "
  },
  "0NE6": {
    "lat": 40.4333000183,
    "long": -98.070602417,
    "name": "Frager Field"
  },
  "0NJ5": {
    "lat": 40.8858985901,
    "long": -74.7057037354,
    "name": "Fla-Net "
  },
  "0NJ6": {
    "lat": 39.3167991638,
    "long": -74.6328964233,
    "name": "Dix Field"
  },
  "0NK0": {
    "lat": 42.3339996338,
    "long": -78.7909011841,
    "name": "Berdick Field"
  },
  "0NK1": {
    "lat": 43.3616981506,
    "long": -76.220199585,
    "name": "Spring Brook "
  },
  "0NK2": {
    "lat": 42.9833984375,
    "long": -74.0161972046,
    "name": "Westwind Farm "
  },
  "0NK3": {
    "lat": 42.6958999634,
    "long": -77.7921981812,
    "name": "Seven Gullies "
  },
  "0NK6": {
    "lat": 42.4384002686,
    "long": -76.0887985229,
    "name": "Lapeer Flyer "
  },
  "0NK8": {
    "lat": 41.9208984375,
    "long": -73.6704025269,
    "name": "Rocky Reef Farm "
  },
  "0NK9": {
    "lat": 43.0102996826,
    "long": -75.8268966675,
    "name": "Lakeview "
  },
  "0NM0": {
    "lat": 31.8236999512,
    "long": -107.6269989014,
    "name": "Columbus Municipal "
  },
  "0NM7": {
    "lat": 33.5209007263,
    "long": -108.5429992676,
    "name": "Negrito Airstrip"
  },
  "0NY0": {
    "lat": 43.7000999451,
    "long": -73.9829025269,
    "name": "Bennetts "
  },
  "0NY1": {
    "lat": 43.1391983032,
    "long": -73.6531982422,
    "name": "Russell Field"
  },
  "0NY3": {
    "lat": 43.313999176,
    "long": -74.9320983887,
    "name": "Kermizian "
  },
  "0NY7": {
    "lat": 43.0376014709,
    "long": -74.1843032837,
    "name": "Murphys Landing Strip"
  },
  "0NY8": {
    "lat": 42.9972991943,
    "long": -74.2453994751,
    "name": "Wenskoski Field"
  },
  "0OH2": {
    "lat": 39.9706001282,
    "long": -83.9115982056,
    "name": "Jenkins Field"
  },
  "0OH6": {
    "lat": 39.6006011963,
    "long": -84.0196990967,
    "name": "Fry Field"
  },
  "0OH7": {
    "lat": 40.1432991028,
    "long": -84.1718978882,
    "name": "Apple "
  },
  "0OH8": {
    "lat": 40.1884002686,
    "long": -84.2561035156,
    "name": "Fry "
  },
  "0OH9": {
    "lat": 40.0717010498,
    "long": -83.2298965454,
    "name": "Parknavy STOLport"
  },
  "0OI2": {
    "lat": 39.3597984314,
    "long": -83.4177017212,
    "name": "Unger Field"
  },
  "0OI3": {
    "lat": 41.3820991516,
    "long": -82.7161026001,
    "name": "Galloway "
  },
  "0OI4": {
    "lat": 41.3242645264,
    "long": -81.1593093872,
    "name": "Salt Box "
  },
  "0OI6": {
    "lat": 41.8381004333,
    "long": -80.643699646,
    "name": "Victor's Landing "
  },
  "0OI9": {
    "lat": 38.8945007324,
    "long": -83.1135025024,
    "name": "Hidden Quarry "
  },
  "0OK0": {
    "lat": 35.6833992004,
    "long": -97.4336013794,
    "name": "Edmond "
  },
  "0OK1": {
    "lat": 34.6570014954,
    "long": -97.4017028809,
    "name": "Mckey "
  },
  "0OK3": {
    "lat": 35.6194992065,
    "long": -98.5225982666,
    "name": "Mckinley Ranch "
  },
  "0OK4": {
    "lat": 34.6605987549,
    "long": -96.2536010742,
    "name": "Rock Creek Farm "
  },
  "0OK5": {
    "lat": 35.8889007568,
    "long": -97.4002990723,
    "name": "Chappell "
  },
  "0OK6": {
    "lat": 35.801700592,
    "long": -97.386100769,
    "name": "Ellis/Harvey "
  },
  "0OK8": {
    "lat": 36.2924995422,
    "long": -97.5931015015,
    "name": "Cade's "
  },
  "0OK9": {
    "lat": 36.2134017944,
    "long": -96.6370010376,
    "name": "Crystal "
  },
  "0OR3": {
    "lat": 42.0190010071,
    "long": -121.7040023804,
    "name": "Long Ranch "
  },
  "0OR5": {
    "lat": 42.5035018921,
    "long": -122.855003357,
    "name": "East Oregon Cattle Co "
  },
  "0OR6": {
    "lat": 42.8339996338,
    "long": -117.6289978027,
    "name": "Rome Service "
  },
  "0OR7": {
    "lat": 44.8540000916,
    "long": -123.263999939,
    "name": "Marr Field"
  },
  "0OR8": {
    "lat": 42.4847984314,
    "long": -122.8659973145,
    "name": "Sutton on Rogue "
  },
  "0OR9": {
    "lat": 45.5926017761,
    "long": -121.5490036011,
    "name": "Hanel Field"
  },
  "0PA0": {
    "lat": 40.3283996582,
    "long": -75.2413024902,
    "name": "Philadelphia Gliderport"
  },
  "0PA2": {
    "lat": 40.3167991638,
    "long": -77.1247024536,
    "name": "Haunstein Ultralightport"
  },
  "0PA3": {
    "lat": 41.7495002747,
    "long": -76.7602005005,
    "name": "Robbins Farm "
  },
  "0PA4": {
    "lat": 40.2375984192,
    "long": -76.7247009277,
    "name": "Ecko Field"
  },
  "0PA5": {
    "lat": 41.4944992065,
    "long": -79.8309020996,
    "name": "Fisher "
  },
  "0PA6": {
    "lat": 40.6309013367,
    "long": -77.8503036499,
    "name": "Hostetler "
  },
  "0PA7": {
    "lat": 39.8847999573,
    "long": -75.4149017334,
    "name": "Linvill "
  },
  "0PN0": {
    "lat": 41.4435997009,
    "long": -80.1539001465,
    "name": "Fletcher "
  },
  "0PN2": {
    "lat": 41.0731010437,
    "long": -80.0702972412,
    "name": "Flying Acres "
  },
  "0PN4": {
    "lat": 40.4128990173,
    "long": -77.2414016724,
    "name": "Kitner "
  },
  "0PN5": {
    "lat": 41.7792015076,
    "long": -79.5983963013,
    "name": "Nichols "
  },
  "0PN6": {
    "lat": 40.1689987183,
    "long": -77.9925003052,
    "name": "Memmi "
  },
  "0PN7": {
    "lat": 40.1282997131,
    "long": -77.631401062,
    "name": "Drillmore Acres "
  },
  "0PN8": {
    "lat": 41.6166992188,
    "long": -79.6830978394,
    "name": "Shriver "
  },
  "0PN9": {
    "lat": 41.7195014954,
    "long": -79.6778030396,
    "name": "Paul Personal Use "
  },
  "0PS0": {
    "lat": 41.3708992004,
    "long": -79.3416976929,
    "name": "Frederick Airpark"
  },
  "0PS3": {
    "lat": 40.490398407,
    "long": -76.7666015625,
    "name": "Carsonville "
  },
  "0PS4": {
    "lat": 41.0083999634,
    "long": -78.5608978271,
    "name": "Old Orchard "
  },
  "0PS7": {
    "lat": 40.5223007202,
    "long": -76.8454971313,
    "name": "Harman "
  },
  "0SD0": {
    "lat": 45.4249992371,
    "long": -100.891998291,
    "name": "Lenling "
  },
  "0SD1": {
    "lat": 42.9721984863,
    "long": -96.9802017212,
    "name": "Lodi "
  },
  "0SD3": {
    "lat": 45.2694015503,
    "long": -103.2170028687,
    "name": "Bledsoe Ranch "
  },
  "0SD6": {
    "lat": 44.288898468,
    "long": -101.8259963989,
    "name": "Oasis Ranch "
  },
  "0SD7": {
    "lat": 43.5243988037,
    "long": -101.7340011597,
    "name": "Porch Ranch "
  },
  "0SD8": {
    "lat": 43.7827987671,
    "long": -100.2929992676,
    "name": "Juhnke "
  },
  "0TA1": {
    "lat": 34.2195014954,
    "long": -101.9800033569,
    "name": "Buddy Harmel "
  },
  "0TA2": {
    "lat": 34.2167015076,
    "long": -101.9250030518,
    "name": "Smith Farms "
  },
  "0TA3": {
    "lat": 30.3043003082,
    "long": -102.1380004883,
    "name": "Tate Ranch "
  },
  "0TA4": {
    "lat": 32.4978981018,
    "long": -96.2705001831,
    "name": "Erco Field"
  },
  "0TA7": {
    "lat": 30.1481990814,
    "long": -103.8929977417,
    "name": "Alta Vista Ranch "
  },
  "0TA8": {
    "lat": 33.8487014771,
    "long": -95.4072036743,
    "name": "Womack Plantation "
  },
  "0TE0": {
    "lat": 29.6930007935,
    "long": -101.1620025635,
    "name": "Robertson Ranch "
  },
  "0TE3": {
    "lat": 33.9291992188,
    "long": -100.8420028687,
    "name": "Buzz Field"
  },
  "0TE4": {
    "lat": 31.0809993744,
    "long": -96.2152023315,
    "name": "Hilltop Lakes "
  },
  "0TE5": {
    "lat": 27.4337997437,
    "long": -99.1858978271,
    "name": "Santa Maria Ranch "
  },
  "0TE6": {
    "lat": 32.2042999268,
    "long": -98.6656036377,
    "name": "Gorman "
  },
  "0TE7": {
    "lat": 30.2518005371,
    "long": -98.6224975586,
    "name": "Lbj Ranch "
  },
  "0TN0": {
    "lat": 35.676700592,
    "long": -86.896697998,
    "name": "R & S Buzzard "
  },
  "0TN2": {
    "lat": 35.6558990479,
    "long": -84.1855010986,
    "name": "Village "
  },
  "0TN5": {
    "lat": 35.867401123,
    "long": -86.4978027344,
    "name": "Mc Donald "
  },
  "0TN6": {
    "lat": 36.1833992004,
    "long": -84.0990982056,
    "name": "Riner Farm "
  },
  "0TS0": {
    "lat": 33.0228996277,
    "long": -97.1224975586,
    "name": "Flower Mound "
  },
  "0TS1": {
    "lat": 33.0987014771,
    "long": -97.2724990845,
    "name": "Dooley "
  },
  "0TS2": {
    "lat": 32.9486999512,
    "long": -97.3289031982,
    "name": "Ultralight International Ultralightport"
  },
  "0TS4": {
    "lat": 30.0918998718,
    "long": -96.7949981689,
    "name": "Ullrich "
  },
  "0TS5": {
    "lat": 30.4419002533,
    "long": -95.1863021851,
    "name": "Lake Bay Gall "
  },
  "0TS7": {
    "lat": 32.8334999084,
    "long": -98.1252975464,
    "name": "Flying U "
  },
  "0TS8": {
    "lat": 26.1504001617,
    "long": -97.8835983276,
    "name": "Flying 'K' Ranch Ultralightport"
  },
  "0TS9": {
    "lat": 30.015499115,
    "long": -97.737197876,
    "name": "Jim Roach Field"
  },
  "0TX0": {
    "lat": 32.4196014404,
    "long": -97.7127990723,
    "name": "Nassau Bay "
  },
  "0TX1": {
    "lat": 32.3540000916,
    "long": -97.676399231,
    "name": "Pecan Plantation "
  },
  "0TX5": {
    "lat": 33.0239982605,
    "long": -97.1196975708,
    "name": "Shiloh "
  },
  "0TX6": {
    "lat": 29.5051994324,
    "long": -97.9969024658,
    "name": "Elm Creek Airpark"
  },
  "0TX7": {
    "lat": 32.9500999451,
    "long": -97.1502990723,
    "name": "Lazy K Acres "
  },
  "0TX8": {
    "lat": 33.1804008484,
    "long": -96.043296814,
    "name": "Jacobia Field"
  },
  "0TX9": {
    "lat": 33.2500991821,
    "long": -96.116897583,
    "name": "Card Aerodrome"
  },
  "0VA1": {
    "lat": 37.2335014343,
    "long": -79.5852966309,
    "name": "Johnson Fox Field"
  },
  "0VA2": {
    "lat": 37.7965011597,
    "long": -79.7667007446,
    "name": "Riverwood "
  },
  "0VA3": {
    "lat": 37.6987991333,
    "long": -77.0952987671,
    "name": "Hunt "
  },
  "0VA4": {
    "lat": 36.9500999451,
    "long": -79.8795013428,
    "name": "Worley Field"
  },
  "0VA5": {
    "lat": 37.6941443722,
    "long": -77.6608943939,
    "name": "Coffman Field"
  },
  "0VA7": {
    "lat": 37.5232009888,
    "long": -77.8193969727,
    "name": "Flatrock Air Strip"
  },
  "0VA8": {
    "lat": 37.2858009338,
    "long": -77.7911987305,
    "name": "Jayarz "
  },
  "0VA9": {
    "lat": 37.4473991394,
    "long": -76.4537963867,
    "name": "Handy Strip"
  },
  "0VI1": {
    "lat": 37.6888999939,
    "long": -77.1014022827,
    "name": "Brooklyn "
  },
  "0WA1": {
    "lat": 46.617099762,
    "long": -122.8259963989,
    "name": "Dwight Field"
  },
  "0WA2": {
    "lat": 46.5904006958,
    "long": -123.1050033569,
    "name": "Curtis "
  },
  "0WI1": {
    "lat": 45.5071983337,
    "long": -92.1418991089,
    "name": "Mort's Landing "
  },
  "0WI2": {
    "lat": 43.2014007568,
    "long": -88.3333969116,
    "name": "Doering Farms Airfield"
  },
  "0WI4": {
    "lat": 43.8293991089,
    "long": -89.3526000977,
    "name": "Snow Crest Ranch "
  },
  "0WI5": {
    "lat": 42.7933998108,
    "long": -87.8906021118,
    "name": "Crash In International "
  },
  "0WI6": {
    "lat": 42.8736000061,
    "long": -88.1578979492,
    "name": "Simandl Field/Private "
  },
  "0WI7": {
    "lat": 44.1335983276,
    "long": -88.4992980957,
    "name": "With Wings And A Halo "
  },
  "0WI8": {
    "lat": 43.1389007568,
    "long": -88.4722976685,
    "name": "Oconomowoc "
  },
  "0WI9": {
    "lat": 42.9314002991,
    "long": -89.3386993408,
    "name": "Mc Manus Hoonch-Na-Shee-Kaw "
  },
  "0WN0": {
    "lat": 48.137298584,
    "long": -123.1129989624,
    "name": "Rucilla's Roost "
  },
  "0WN1": {
    "lat": 46.7518997192,
    "long": -120.6019973755,
    "name": "Shangri-La "
  },
  "0WN2": {
    "lat": 46.127778,
    "long": -119.015,
    "name": "Coopers Landing"
  },
  "0WN5": {
    "lat": 42.7997016907,
    "long": -88.0486984253,
    "name": "Potts Field"
  },
  "0WN9": {
    "lat": 48.430464,
    "long": -119.486058,
    "name": "Wings For Christ "
  },
  "0WY0": {
    "lat": 43.039722,
    "long": -111.038056,
    "name": "Freedom Air Ranch "
  },
  "0WY1": {
    "lat": 44.411111,
    "long": -108.163333,
    "name": "Dorsey Creek Ranch "
  },
  "0XA4": {
    "lat": 27.9969005585,
    "long": -98.8822021484,
    "name": "Seven C's Ranch "
  },
  "0XA5": {
    "lat": 28.6849002838,
    "long": -98.3827972412,
    "name": "74 Ranch "
  },
  "0XA7": {
    "lat": 30.66270065,
    "long": -97.62509918,
    "name": "Bar 3 Ranch "
  },
  "0XA8": {
    "lat": 30.2700004578,
    "long": -98.1082992554,
    "name": "Ohho "
  },
  "0XS0": {
    "lat": 28.4002990723,
    "long": -99.5587005615,
    "name": "Diamond H Ranch "
  },
  "0XS1": {
    "lat": 29.2877998352,
    "long": -96.3497009277,
    "name": "Rodgers Roost "
  },
  "0XS2": {
    "lat": 30.5548992157,
    "long": -100.533996582,
    "name": "John Fields Ranch "
  },
  "0XS6": {
    "lat": 30.5009994507,
    "long": -98.1470031738,
    "name": "Lakeside Beach "
  },
  "0XS7": {
    "lat": 29.1919002533,
    "long": -100.2750015259,
    "name": "Anacacho Ranch "
  },
  "0XS8": {
    "lat": 29.0760993958,
    "long": -100.375,
    "name": "Dunbar Ranch "
  },
  "0XS9": {
    "lat": 32.134042,
    "long": -95.339583,
    "name": "French Field"
  },
  "10AK": {
    "lat": 61.5918998718,
    "long": -149.6779937744,
    "name": "Hunt Strip"
  },
  "10AZ": {
    "lat": 33.3664016724,
    "long": -112.6179962158,
    "name": "Pierce "
  },
  "10CL": {
    "lat": 35.3680000305,
    "long": -119.1949996948,
    "name": "Joe Gottlieb Field"
  },
  "10CO": {
    "lat": 39.45470047,
    "long": -102.212997437,
    "name": "Silkman Farms Inc. "
  },
  "10FA": {
    "lat": 28.7975006104,
    "long": -81.9358978271,
    "name": "Flying Baron Estates "
  },
  "10FD": {
    "lat": 29.0065994263,
    "long": -82.4046020508,
    "name": "Seven Feathers "
  },
  "10GA": {
    "lat": 33.3250999451,
    "long": -84.2983016968,
    "name": "Beaverbrook Aerodrome"
  },
  "10IA": {
    "lat": 42.4166984558,
    "long": -92.2501983643,
    "name": "Flyers "
  },
  "10ID": {
    "lat": 43.4944000244,
    "long": -113.9219970703,
    "name": "Flat Top Airstrip"
  },
  "10IN": {
    "lat": 39.7183990479,
    "long": -85.0488967896,
    "name": "Squires "
  },
  "10LA": {
    "lat": 30.2474002838,
    "long": -92.0960006714,
    "name": "Industrial Helicopters Inc. "
  },
  "10LS": {
    "lat": 30.0463008881,
    "long": -91.9945983887,
    "name": "G & J Fly A Way Ultralightport"
  },
  "10MO": {
    "lat": 38.9145011902,
    "long": -91.7042999268,
    "name": "Eckerts Airstrip"
  },
  "10MT": {
    "lat": 47.8333015442,
    "long": -106.4840011597,
    "name": "Hoolie "
  },
  "10NC": {
    "lat": 36.3431015015,
    "long": -77.5093994141,
    "name": "Johnston Farm "
  },
  "10ND": {
    "lat": 47.1875,
    "long": -102.3619995117,
    "name": "Smith Strip"
  },
  "10OH": {
    "lat": 41.4028015137,
    "long": -82.6290969849,
    "name": "Zoellner "
  },
  "10OK": {
    "lat": 35.1666984558,
    "long": -97.2170028687,
    "name": "Hickory Hills "
  },
  "10OR": {
    "lat": 45.7892990112,
    "long": -123.2320022583,
    "name": "Stevens Mountain "
  },
  "10TE": {
    "lat": 29.6669006348,
    "long": -97.5002975464,
    "name": "Gottwald Field"
  },
  "10TN": {
    "lat": 36.0718994141,
    "long": -86.3544006348,
    "name": "Flatwood Field"
  },
  "10TS": {
    "lat": 29.5524997711,
    "long": -98.1031036377,
    "name": "Saint's Strip Ultralightport"
  },
  "10VA": {
    "lat": 37.3862991333,
    "long": -78.8131027222,
    "name": "Nashs "
  },
  "10WA": {
    "lat": 47.554599762,
    "long": -117.4130020142,
    "name": "Mullan Hill "
  },
  "10WI": {
    "lat": 45.1157989502,
    "long": -88.1894989014,
    "name": "Buds Landing "
  },
  "10WY": {
    "lat": 43.423333,
    "long": -106.823611,
    "name": "Willow Creek Ranch "
  },
  "10XS": {
    "lat": 31.779499054,
    "long": -98.9093017578,
    "name": "Flying S Air Ranch "
  },
  "11AK": {
    "lat": 63.9995994568,
    "long": -145.501998901,
    "name": "Rocking T. Ranch "
  },
  "11AZ": {
    "lat": 31.6837005615,
    "long": -110.2900009155,
    "name": "Whetstone "
  },
  "11CA": {
    "lat": 36.6733016968,
    "long": -119.7220001221,
    "name": "Turner Field"
  },
  "11CL": {
    "lat": 34.6300010681,
    "long": -117.6529998779,
    "name": "Hansen "
  },
  "11FA": {
    "lat": 25.5837001801,
    "long": -80.4998016357,
    "name": "B & L Farms "
  },
  "11FL": {
    "lat": 30.0429992676,
    "long": -81.880897522,
    "name": "Williams Field"
  },
  "11ID": {
    "lat": 42.1855010986,
    "long": -116.1129989624,
    "name": "Riddle "
  },
  "11II": {
    "lat": 39.3417015076,
    "long": -86.0305023193,
    "name": "Atterbury Field (Camp Atterbury)"
  },
  "11IN": {
    "lat": 39.818901062,
    "long": -86.5381011963,
    "name": "Jr's "
  },
  "11KS": {
    "lat": 39.1166992188,
    "long": -95.1489028931,
    "name": "Sheller's "
  },
  "11LL": {
    "lat": 40.7230987549,
    "long": -88.7630996704,
    "name": "Thacker "
  },
  "11LS": {
    "lat": 30.9759998322,
    "long": -92.5690002441,
    "name": "Jasmine Hill "
  },
  "11MA": {
    "lat": 41.8073005676,
    "long": -70.7583999634,
    "name": "Bulljump "
  },
  "11MD": {
    "lat": 38.4333000183,
    "long": -75.6277999878,
    "name": "Tim's "
  },
  "11MO": {
    "lat": 38.9016990662,
    "long": -91.6352005005,
    "name": "Redgate Ranch "
  },
  "11NE": {
    "lat": 42.4425010681,
    "long": -103.9160003662,
    "name": "Kaan "
  },
  "11NK": {
    "lat": 42.913898468,
    "long": -74.6117019653,
    "name": "Hop House Airpark"
  },
  "11NY": {
    "lat": 42.2089996338,
    "long": -76.4496994019,
    "name": "Saikkonen "
  },
  "11OA": {
    "lat": 39.6431007385,
    "long": -82.466796875,
    "name": "Hide-A-Way Hills Resort "
  },
  "11OG": {
    "lat": 44.4513015747,
    "long": -118.18699646,
    "name": "Unity "
  },
  "11OK": {
    "lat": 35.0722999573,
    "long": -97.3835983276,
    "name": "Beefor Ranch "
  },
  "11OR": {
    "lat": 43.3935012817,
    "long": -123.2850036621,
    "name": "Holiday Sky Ranch "
  },
  "11PN": {
    "lat": 41.3525,
    "long": -79.732778,
    "name": "Eakin "
  },
  "11TE": {
    "lat": 32.3000984192,
    "long": -97.204498291,
    "name": "Flying M Ranch "
  },
  "11TN": {
    "lat": 36.4749984741,
    "long": -87.3666992188,
    "name": "Salem Field"
  },
  "11TS": {
    "lat": 31.6578998566,
    "long": -96.4113998413,
    "name": "Pt Enterprise D&W Ranch "
  },
  "11TX": {
    "lat": 33.6668014526,
    "long": -96.6905975342,
    "name": "Butler "
  },
  "11VG": {
    "lat": 38.209400177,
    "long": -77.0006027222,
    "name": "Devil's Reach Landing "
  },
  "11WA": {
    "lat": 47.5237998962,
    "long": -117.4700012207,
    "name": "Homeport "
  },
  "12AR": {
    "lat": 34.515444,
    "long": -90.973722,
    "name": "Gibbons "
  },
  "12AZ": {
    "lat": 33.8539009094,
    "long": -112.6529998779,
    "name": "Ranta Strip"
  },
  "12CA": {
    "lat": 38.1096000671,
    "long": -121.1689987183,
    "name": "Faber Vineyards "
  },
  "12CL": {
    "lat": 36.1568984985,
    "long": -119.8499984741,
    "name": "Newton Field"
  },
  "12CO": {
    "lat": 38.8354988098,
    "long": -107.8150024414,
    "name": "Omega 1 STOLport"
  },
  "12FA": {
    "lat": 28.4785995483,
    "long": -81.7145004272,
    "name": "Hi-Acres "
  },
  "12IA": {
    "lat": 42.8004989624,
    "long": -96.137802124,
    "name": "Plueger Airfield"
  },
  "12ID": {
    "lat": 44.9679985046,
    "long": -114.733001709,
    "name": "Flying B Ranch Landing Strip"
  },
  "12II": {
    "lat": 39.8562011719,
    "long": -84.9721984863,
    "name": "Pentecost "
  },
  "12IL": {
    "lat": 41.2000007629,
    "long": -88.0167007446,
    "name": "Hawker "
  },
  "12IN": {
    "lat": 38.118598938,
    "long": -87.6474990845,
    "name": "J & S Field"
  },
  "12KS": {
    "lat": 37.9352989197,
    "long": -97.4878005981,
    "name": "Sooter "
  },
  "12KY": {
    "lat": 38.4603004456,
    "long": -85.1686019897,
    "name": "John M. Foree "
  },
  "12LA": {
    "lat": 30.2758998871,
    "long": -93.3573989868,
    "name": "Kml "
  },
  "12LL": {
    "lat": 37.5402984619,
    "long": -89.4861984253,
    "name": "Lambdins Field"
  },
  "12LS": {
    "lat": 30.1786003113,
    "long": -92.2850036621,
    "name": "Hains Airstrip"
  },
  "12ME": {
    "lat": 44.3222999573,
    "long": -69.2072982788,
    "name": "Ridgeview "
  },
  "12MI": {
    "lat": 43.051700592,
    "long": -83.491897583,
    "name": "John's "
  },
  "12MO": {
    "lat": 38.5806007385,
    "long": -93.5947036743,
    "name": "Ferguson Farms "
  },
  "12MS": {
    "lat": 31.0930995941,
    "long": -91.3190002441,
    "name": "Green Acres "
  },
  "12MT": {
    "lat": 48.7742004395,
    "long": -110.4420013428,
    "name": "Lincolns Field"
  },
  "12NC": {
    "lat": 34.8833007812,
    "long": -76.3499984741,
    "name": "Atlantic Field Mcolf "
  },
  "12ND": {
    "lat": 48.29529953,
    "long": -101.4270019531,
    "name": "Pietschtree Airstrip"
  },
  "12NE": {
    "lat": 41.9066009521,
    "long": -103.6999969482,
    "name": "Reisig Brothers "
  },
  "12NH": {
    "lat": 43.495278,
    "long": -71.654444,
    "name": "Gile Pond "
  },
  "12NK": {
    "lat": 44.1584014893,
    "long": -73.4328994751,
    "name": "Westport "
  },
  "12NM": {
    "lat": 31.7917995453,
    "long": -107.6380004883,
    "name": "Columbus Stockyards "
  },
  "12OH": {
    "lat": 39.8348007202,
    "long": -84.3347015381,
    "name": "Mcgregor Airfield"
  },
  "12OK": {
    "lat": 35.5413017273,
    "long": -97.4531021118,
    "name": "Expressway Airpark"
  },
  "12OR": {
    "lat": 42.9513015747,
    "long": -117.2819976807,
    "name": "Skinner Ranch "
  },
  "12SC": {
    "lat": 34.1413993835,
    "long": -80.7466964722,
    "name": "Over the Hill "
  },
  "12TE": {
    "lat": 31.3167991638,
    "long": -99.2337036133,
    "name": "Curtis Ranch Field"
  },
  "12TN": {
    "lat": 35.8236999512,
    "long": -84.5388031006,
    "name": "Riley Creek "
  },
  "12TS": {
    "lat": 32.9085006714,
    "long": -97.9773025513,
    "name": "Blo "
  },
  "12TX": {
    "lat": 30.8213996887,
    "long": -98.0805969238,
    "name": "Griffin "
  },
  "12VA": {
    "lat": 37.7881011963,
    "long": -79.7677993774,
    "name": "Hop-Along "
  },
  "12WA": {
    "lat": 47.5206985474,
    "long": -117.4629974365,
    "name": "Fowlers Nw 40 "
  },
  "12WT": {
    "lat": 46.911,
    "long": -117.218667,
    "name": "Walker "
  },
  "12WY": {
    "lat": 44.45,
    "long": -108.384667,
    "name": "Black Diamond "
  },
  "12XS": {
    "lat": 34.95470047,
    "long": -91.8371963501,
    "name": "Mc Croskey Field"
  },
  "13AK": {
    "lat": 61.6547012329,
    "long": -149.8999938965,
    "name": "Satterbergs "
  },
  "13AZ": {
    "lat": 33.535,
    "long": -112.853472222,
    "name": "Waltenberry Field Ultralightport"
  },
  "13CL": {
    "lat": 38.3813018799,
    "long": -121.8239974976,
    "name": "Maine Prairie "
  },
  "13FA": {
    "lat": 29.6944007874,
    "long": -81.5137023926,
    "name": "Earle Airpark"
  },
  "13GA": {
    "lat": 31.3666000366,
    "long": -83.7548980713,
    "name": "Oak Ridge Plantation "
  },
  "13GE": {
    "lat": 32.3608016968,
    "long": -82.3180999756,
    "name": "Holt Airpark"
  },
  "13IA": {
    "lat": 42.0457000732,
    "long": -90.1911010742,
    "name": "Hillside Stables "
  },
  "13ID": {
    "lat": 44.2666015625,
    "long": -115.0009994507,
    "name": "Silva Ranch "
  },
  "13IN": {
    "lat": 40.8152999878,
    "long": -84.927696228,
    "name": "Gage "
  },
  "13KS": {
    "lat": 37.6977996826,
    "long": -97.1102981567,
    "name": "Daniel's Landing "
  },
  "13KY": {
    "lat": 37.7056007385,
    "long": -87.1560974121,
    "name": "Miles "
  },
  "13LS": {
    "lat": 29.9939002991,
    "long": -92.385597229,
    "name": "Tee Brad's "
  },
  "13MA": {
    "lat": 42.2233009338,
    "long": -72.3114013672,
    "name": "Metropolitan "
  },
  "13ME": {
    "lat": 45.7764015198,
    "long": -69.8093032837,
    "name": "Socatean Bay "
  },
  "13MN": {
    "lat": 46.1007995605,
    "long": -95.8313980103,
    "name": "Melby "
  },
  "13MO": {
    "lat": 37.676399231,
    "long": -91.7064971924,
    "name": "Domeyer "
  },
  "13MS": {
    "lat": 30.6333007813,
    "long": -89.6639022827,
    "name": "Greener Pastures Airpark"
  },
  "13MT": {
    "lat": 48.5208015442,
    "long": -110.1129989624,
    "name": "Sorenson "
  },
  "13NC": {
    "lat": 35.0335006714,
    "long": -77.2497024536,
    "name": "Oak Grove Mcolf "
  },
  "13NE": {
    "lat": 40.3166999817,
    "long": -100.8089981079,
    "name": "Hock "
  },
  "13NM": {
    "lat": 33.4194984436,
    "long": -108.138999939,
    "name": "Beaverhead Airstrip"
  },
  "13OH": {
    "lat": 41.3302993774,
    "long": -84.2983016968,
    "name": "Rose Field"
  },
  "13OR": {
    "lat": 43.7406997681,
    "long": -122.4260025024,
    "name": "Aubrey Mountain Airstrip"
  },
  "13PA": {
    "lat": 41.682598114,
    "long": -79.452003479,
    "name": "Rigrtona "
  },
  "13PN": {
    "lat": 40.4542999268,
    "long": -75.3046035767,
    "name": "Richland Acres Ultralightport"
  },
  "13TE": {
    "lat": 30.6560001373,
    "long": -96.5382995605,
    "name": "Varisco "
  },
  "13TS": {
    "lat": 27.4552993774,
    "long": -98.926399231,
    "name": "Van Es Ranch "
  },
  "13TX": {
    "lat": 30.5312995911,
    "long": -100.4509963989,
    "name": "Allison Ranch "
  },
  "13WI": {
    "lat": 43.6963996887,
    "long": -88.9996032715,
    "name": "Nowatzski Field"
  },
  "14AK": {
    "lat": 61.6015014648,
    "long": -149.2480010986,
    "name": "Four Corners "
  },
  "14AR": {
    "lat": 35.0527992249,
    "long": -90.6750030518,
    "name": "Rice-Bell Field "
  },
  "14AZ": {
    "lat": 31.9083003998,
    "long": -111.1220016479,
    "name": "Ruby Star Airpark"
  },
  "14CO": {
    "lat": 38.0971984863,
    "long": -104.9100036621,
    "name": "Good Pasture "
  },
  "14FA": {
    "lat": 25.5701007843,
    "long": -80.3998031616,
    "name": "Burrs Strip"
  },
  "14FD": {
    "lat": 29.9491004944,
    "long": -81.4904022217,
    "name": "Sunshine Farms "
  },
  "14FL": {
    "lat": 30.8654994965,
    "long": -87.177696228,
    "name": "Wells Flying Service "
  },
  "14ID": {
    "lat": 43.6809997559,
    "long": -116.2030029297,
    "name": "Peaceful Cove "
  },
  "14IN": {
    "lat": 41.2070007324,
    "long": -87.2125015259,
    "name": "De Motte "
  },
  "14KS": {
    "lat": 38.2691993713,
    "long": -94.904800415,
    "name": "G & S Space Port "
  },
  "14KY": {
    "lat": 38.1736984253,
    "long": -84.3683013916,
    "name": "Blue Haven Farm "
  },
  "14LA": {
    "lat": 30.8409996033,
    "long": -91.5082015991,
    "name": "Killarny Farm "
  },
  "14ME": {
    "lat": 44.7925987244,
    "long": -69.0702972412,
    "name": "Ring Hill "
  },
  "14MI": {
    "lat": 42.8508987427,
    "long": -85.5670013428,
    "name": "East-West Paris "
  },
  "14MO": {
    "lat": 39.0499992371,
    "long": -94.3169021606,
    "name": "Stevinson Farm "
  },
  "14MS": {
    "lat": 32.3452987671,
    "long": -89.0342025757,
    "name": "Rose Field"
  },
  "14MT": {
    "lat": 47.0516014099,
    "long": -109.0749969482,
    "name": "Holland Ranch "
  },
  "14NC": {
    "lat": 34.5167007446,
    "long": -77.5500030518,
    "name": "Camp Davis Mcolf "
  },
  "14ND": {
    "lat": 46.2078018188,
    "long": -102.9079971313,
    "name": "Hagen Private "
  },
  "14NE": {
    "lat": 40.8624992371,
    "long": -98.064201355,
    "name": "Aaron's Field"
  },
  "14NK": {
    "lat": 43.3400001526,
    "long": -73.4789962769,
    "name": "Mountain View "
  },
  "14OH": {
    "lat": 40.6688995361,
    "long": -83.4434967041,
    "name": "Heilman "
  },
  "14OI": {
    "lat": 40.9192008972,
    "long": -82.1139984131,
    "name": "Pleasant Home Gliding Club Gliderport"
  },
  "14OK": {
    "lat": 35.8041992188,
    "long": -97.9337005615,
    "name": "Reherman "
  },
  "14PA": {
    "lat": 40.2909011841,
    "long": -75.6591033936,
    "name": "Dimascio Field"
  },
  "14PS": {
    "lat": 39.8843994141,
    "long": -76.118598938,
    "name": "Hideaway Ultralightport"
  },
  "14TA": {
    "lat": 29.8985996246,
    "long": -98.4030990601,
    "name": "Dean Ranch "
  },
  "14TE": {
    "lat": 30.9167995453,
    "long": -99.4837036133,
    "name": "Smith I-Ranch "
  },
  "14TS": {
    "lat": 27.4216995239,
    "long": -98.6044998169,
    "name": "O S Wyatt "
  },
  "14TX": {
    "lat": 30.2894001007,
    "long": -98.1738967896,
    "name": "Keyes Ranch "
  },
  "14VA": {
    "lat": 39.2290000916,
    "long": -77.7466964722,
    "name": "Krens Farm "
  },
  "14WA": {
    "lat": 46.9706993103,
    "long": -122.7369995117,
    "name": "Lz Ranch "
  },
  "14WS": {
    "lat": 45.7779998779,
    "long": -91.5585021973,
    "name": "Lakewood Lodge "
  },
  "14XA": {
    "lat": 33.6578884021,
    "long": -96.7882847786,
    "name": "Sherman (Frog Pond) "
  },
  "14XS": {
    "lat": 30.8085002899,
    "long": -97.2739028931,
    "name": "Isbell Ranch "
  },
  "15AK": {
    "lat": 63.3707008362,
    "long": -148.8500061035,
    "name": "Golden North Airfield"
  },
  "15AR": {
    "lat": 34.8259010315,
    "long": -90.543296814,
    "name": "Dawson's "
  },
  "15AZ": {
    "lat": 33.7444992065,
    "long": -114.476997375,
    "name": "Quail Mesa Ranch "
  },
  "15CL": {
    "lat": 37.3427009583,
    "long": -120.4039993286,
    "name": "Hunt Farms "
  },
  "15FD": {
    "lat": 30.6585006714,
    "long": -85.5298995972,
    "name": "Orange Hill "
  },
  "15FL": {
    "lat": 30.1536998749,
    "long": -82.6663970947,
    "name": "Cannon Creek Airpark"
  },
  "15GA": {
    "lat": 32.6801986694,
    "long": -82.4789962769,
    "name": "Darla's "
  },
  "15ID": {
    "lat": 47.6856002808,
    "long": -117.0380020142,
    "name": "Scanlon "
  },
  "15IL": {
    "lat": 41.7972984314,
    "long": -89.2732009888,
    "name": "Gittleson Farms "
  },
  "15IN": {
    "lat": 38.1506004333,
    "long": -87.8403015137,
    "name": "Bugtown "
  },
  "15KS": {
    "lat": 38.4305992126,
    "long": -96.0883026123,
    "name": "Sickler Airstrip"
  },
  "15KY": {
    "lat": 38.1570014954,
    "long": -84.3015975952,
    "name": "Brennan Farm "
  },
  "15LL": {
    "lat": 41.2374992371,
    "long": -89.5366973877,
    "name": "Cloverleaf Ranch "
  },
  "15MA": {
    "lat": 41.4222984314,
    "long": -70.9095001221,
    "name": "Canapitsit "
  },
  "15ME": {
    "lat": 43.8152999878,
    "long": -70.2292022705,
    "name": "Eagle Field"
  },
  "15MN": {
    "lat": 45.2621994019,
    "long": -94.5106964111,
    "name": "Tyler Farms "
  },
  "15MO": {
    "lat": 40.391998291,
    "long": -92.5654983521,
    "name": "Applegate "
  },
  "15MT": {
    "lat": 48.5004005432,
    "long": -105.9100036621,
    "name": "Saubak "
  },
  "15NC": {
    "lat": 36.2397003174,
    "long": -76.9738998413,
    "name": "Dragonfly Field"
  },
  "15NE": {
    "lat": 40.2910995483,
    "long": -98.8234024048,
    "name": "Sindt "
  },
  "15NK": {
    "lat": 42.5764007568,
    "long": -78.5567016602,
    "name": "Knox Landing "
  },
  "15OK": {
    "lat": 35.703889,
    "long": -95.310833,
    "name": "Bluebird "
  },
  "15PA": {
    "lat": 41.5942993164,
    "long": -75.3554992676,
    "name": "Cavage Personal Use "
  },
  "15TA": {
    "lat": 30.2544002533,
    "long": -99.9469985962,
    "name": "J R Ranch "
  },
  "15TX": {
    "lat": 32.3042984009,
    "long": -98.325302124,
    "name": "Ed Shadle "
  },
  "15VA": {
    "lat": 38.7223014832,
    "long": -77.8996963501,
    "name": "Fox Acres "
  },
  "15WA": {
    "lat": 48.27230072,
    "long": -122.3570023,
    "name": "Sunset "
  },
  "15WI": {
    "lat": 42.9275016785,
    "long": -89.4181976318,
    "name": "Peterson Field"
  },
  "15XS": {
    "lat": 29.3327007294,
    "long": -95.3340988159,
    "name": "Toy Airpark"
  },
  "16AK": {
    "lat": 61.5992012024,
    "long": -149.3470001221,
    "name": "Gattis Strip"
  },
  "16AR": {
    "lat": 35.3011016846,
    "long": -92.5733032227,
    "name": "Heifer Creek Ranch "
  },
  "16AZ": {
    "lat": 34.5088996887,
    "long": -112.6800003052,
    "name": "Yav'pe Ma'ta "
  },
  "16CO": {
    "lat": 39.40995,
    "long": -108.085667,
    "name": "Dry Pen "
  },
  "16FA": {
    "lat": 26.0308990479,
    "long": -81.0386962891,
    "name": "Little Deer "
  },
  "16FD": {
    "lat": 29.4050006866,
    "long": -81.4959030151,
    "name": "Skinners Wholesale Nursery "
  },
  "16FL": {
    "lat": 30.7252006531,
    "long": -87.2014007568,
    "name": "J-22 Ranch "
  },
  "16IA": {
    "lat": 41.8807983398,
    "long": -94.7771987915,
    "name": "Stangl STOLport"
  },
  "16II": {
    "lat": 41.1831016541,
    "long": -86.9336013794,
    "name": "Harrington Field"
  },
  "16IL": {
    "lat": 42.0666999817,
    "long": -88.8333969116,
    "name": "Harold Bunger "
  },
  "16IS": {
    "lat": 37.5778007507,
    "long": -89.0092010498,
    "name": "Kellums "
  },
  "16KY": {
    "lat": 38.4440002441,
    "long": -83.1227035522,
    "name": "Praise God "
  },
  "16LS": {
    "lat": 30.9444007874,
    "long": -91.7938995361,
    "name": "Atchafalaya Flying Company "
  },
  "16MD": {
    "lat": 39.668611,
    "long": -75.960278,
    "name": "High Valley "
  },
  "16MI": {
    "lat": 42.8891983032,
    "long": -83.8666000366,
    "name": "Barnstormers 5 "
  },
  "16MO": {
    "lat": 38.4056015015,
    "long": -91.1574020386,
    "name": "Findley Field"
  },
  "16MT": {
    "lat": 45.4052009583,
    "long": -109.1299972534,
    "name": "Bangart Field"
  },
  "16NC": {
    "lat": 36.1960983276,
    "long": -76.6652984619,
    "name": "Lee's "
  },
  "16NE": {
    "lat": 40.5600013733,
    "long": -96.4916992188,
    "name": "Korver "
  },
  "16OI": {
    "lat": 40.1253013611,
    "long": -84.5824966431,
    "name": "Trump "
  },
  "16OK": {
    "lat": 35.4667015076,
    "long": -97.200302124,
    "name": "Lower Forty "
  },
  "16PA": {
    "lat": 40.1805992126,
    "long": -80.1276016235,
    "name": "Gregg "
  },
  "16SC": {
    "lat": 34.6250991821,
    "long": -81.898399353,
    "name": "Southern Aero Sports "
  },
  "16TA": {
    "lat": 30.9197006226,
    "long": -103.7829971313,
    "name": "Seven Springs "
  },
  "16TE": {
    "lat": 32.6976013184,
    "long": -95.2077026367,
    "name": "Holly Lake Ranch "
  },
  "16TS": {
    "lat": 32.2226982117,
    "long": -95.3180007935,
    "name": "Pineridge STOLport"
  },
  "16TX": {
    "lat": 32.263999939,
    "long": -98.1072998047,
    "name": "Ratliff "
  },
  "16WA": {
    "lat": 47.8446998596,
    "long": -117.6940002441,
    "name": "Tightcliff "
  },
  "16XS": {
    "lat": 30.404367,
    "long": -95.35985,
    "name": "Outlaw Flyers "
  },
  "17AR": {
    "lat": 34.5531005859,
    "long": -92.0914001465,
    "name": "Bredlow Farm "
  },
  "17CL": {
    "lat": 37.0880012512,
    "long": -122.274002075,
    "name": "Las Trancas "
  },
  "17CO": {
    "lat": 40.272258,
    "long": -105.032625,
    "name": "Skylane Ranch "
  },
  "17FA": {
    "lat": 26.7133998871,
    "long": -81.5354003906,
    "name": "Cotton Strip"
  },
  "17FL": {
    "lat": 29.2803001404,
    "long": -82.1248016357,
    "name": "Jumbolair-Greystone "
  },
  "17GA": {
    "lat": 33.4667015076,
    "long": -84.8660964966,
    "name": "Panther Creek "
  },
  "17ID": {
    "lat": 44.413898468,
    "long": -116.591003418,
    "name": "Coyote Ridge "
  },
  "17II": {
    "lat": 41.4500007629,
    "long": -86.5102996826,
    "name": "Dreessen Field"
  },
  "17IN": {
    "lat": 38.9784011841,
    "long": -85.109703064,
    "name": "Pruss "
  },
  "17KS": {
    "lat": 38.5027999878,
    "long": -95.6772003174,
    "name": "Tevis "
  },
  "17KY": {
    "lat": 37.393901825,
    "long": -87.2589035034,
    "name": "Shannon Field"
  },
  "17LL": {
    "lat": 40.1605987549,
    "long": -88.4103012085,
    "name": "Oink Acres "
  },
  "17LS": {
    "lat": 30.6056995392,
    "long": -91.9917984009,
    "name": "Yankee Field"
  },
  "17ME": {
    "lat": 47.2025,
    "long": -67.991667,
    "name": "Bresett'S Mountainside "
  },
  "17MO": {
    "lat": 38.9850006104,
    "long": -91.5348968506,
    "name": "Rgl Field"
  },
  "17MT": {
    "lat": 48.1071014404,
    "long": -114.1770019531,
    "name": "Abel Ranch "
  },
  "17NC": {
    "lat": 34.4663009644,
    "long": -78.3285980225,
    "name": "Mitchell Field"
  },
  "17NK": {
    "lat": 42.5395011902,
    "long": -76.9483032227,
    "name": "Re-Dun Field"
  },
  "17OH": {
    "lat": 41.2425994873,
    "long": -82.2702026367,
    "name": "Kosik Private "
  },
  "17OI": {
    "lat": 39.2266998291,
    "long": -83.3177032471,
    "name": "Haas "
  },
  "17OK": {
    "lat": 36.5250015259,
    "long": -97.7586975098,
    "name": "J-B Airstrip"
  },
  "17OR": {
    "lat": 43.2641983032,
    "long": -123.1100006104,
    "name": "Glide Aero "
  },
  "17PS": {
    "lat": 41.5792007446,
    "long": -79.4417037964,
    "name": "Mountain Crest "
  },
  "17SC": {
    "lat": 34.5326004028,
    "long": -81.8861999512,
    "name": "Carolina Cow Country "
  },
  "17TE": {
    "lat": 29.9291000366,
    "long": -98.9402999878,
    "name": "Comfort Airpark"
  },
  "17TN": {
    "lat": 36.2994003296,
    "long": -82.6042022705,
    "name": "Murphy Field"
  },
  "17TX": {
    "lat": 32.4486999512,
    "long": -98.2549972534,
    "name": "Kimzey "
  },
  "17WI": {
    "lat": 43.0360984802,
    "long": -88.8932037354,
    "name": "Ha-Rail "
  },
  "17XA": {
    "lat": 32.017778,
    "long": -95.7969444445,
    "name": "Jacksonville / Hunter Field"
  },
  "17XS": {
    "lat": 32.1777992249,
    "long": -98.4349975586,
    "name": "Quahadi Ranch "
  },
  "18AR": {
    "lat": 36.3442001343,
    "long": -93.831703186,
    "name": "Buck Mountain "
  },
  "18AZ": {
    "lat": 33.8180999756,
    "long": -111.8980026245,
    "name": "Sky Ranch At Carefree "
  },
  "18CL": {
    "lat": 39.2859992981,
    "long": -121.6940002441,
    "name": "Bowles "
  },
  "18FA": {
    "lat": 27.1028003693,
    "long": -80.2934036255,
    "name": "Tropical Plantation "
  },
  "18FD": {
    "lat": 30.8540992737,
    "long": -86.6671981812,
    "name": "Sky Ranch "
  },
  "18GA": {
    "lat": 33.6931991577,
    "long": -83.657699585,
    "name": "Sleepy Hollow "
  },
  "18II": {
    "lat": 40.1199989319,
    "long": -86.0682983398,
    "name": "Mc Gill "
  },
  "18IN": {
    "lat": 39.2784004211,
    "long": -87.4135971069,
    "name": "Kester Fly Inn "
  },
  "18JY": {
    "lat": 46.2846984863,
    "long": -123.4430007935,
    "name": "Skamokawa East Valley "
  },
  "18KS": {
    "lat": 37.3708992004,
    "long": -97.1072998047,
    "name": "Cherokee Strip"
  },
  "18ME": {
    "lat": 43.893597,
    "long": -69.495406,
    "name": "Ruby "
  },
  "18MN": {
    "lat": 46.2372016907,
    "long": -94.5931015015,
    "name": "Hines Farm "
  },
  "18MO": {
    "lat": 36.962600708,
    "long": -93.1707000732,
    "name": "Gimlin "
  },
  "18MT": {
    "lat": 45.2159996033,
    "long": -113.4990005493,
    "name": "Fish Ranch "
  },
  "18NC": {
    "lat": 35.888999939,
    "long": -81.6137008667,
    "name": "Lanni Field"
  },
  "18NE": {
    "lat": 40.5139007568,
    "long": -97.6106033325,
    "name": "Doc's "
  },
  "18NY": {
    "lat": 42.0164985657,
    "long": -74.0490036011,
    "name": "Strip in the Woods "
  },
  "18OH": {
    "lat": 41.2561988831,
    "long": -82.1437988281,
    "name": "Jer-Mar Airpark"
  },
  "18OI": {
    "lat": 41.4234008789,
    "long": -82.9826965332,
    "name": "Boggy Bottoms "
  },
  "18OR": {
    "lat": 45.0918655396,
    "long": -123.182350159,
    "name": "Red's Field"
  },
  "18PA": {
    "lat": 40.3000984192,
    "long": -75.082901001,
    "name": "Slack "
  },
  "18PN": {
    "lat": 40.0653991699,
    "long": -77.6928024292,
    "name": "Spud View "
  },
  "18SC": {
    "lat": 34.2739982605,
    "long": -81.773399353,
    "name": "Connelly Field"
  },
  "18TA": {
    "lat": 30.1362991333,
    "long": -99.7436981201,
    "name": "West Kerr Ranch "
  },
  "18TE": {
    "lat": 32.5852012634,
    "long": -95.0639038086,
    "name": "Alert Field"
  },
  "18TX": {
    "lat": 32.9524993896,
    "long": -96.2281036377,
    "name": "Flying 'T' Ranch "
  },
  "18WV": {
    "lat": 39.41,
    "long": -79.856667,
    "name": "Lynn "
  },
  "18XS": {
    "lat": 33.8000984192,
    "long": -101.033996582,
    "name": "Gardner Farm "
  },
  "19AK": {
    "lat": 59.96900177,
    "long": -141.662002563,
    "name": "Icy Bay "
  },
  "19AR": {
    "lat": 35.15670013,
    "long": -92.22419739,
    "name": "Naylor field"
  },
  "19AZ": {
    "lat": 34.6049995422,
    "long": -111.8649978638,
    "name": "Montezuma "
  },
  "19CL": {
    "lat": 34.7122001648,
    "long": -117.3509979248,
    "name": "Palisades Ranch "
  },
  "19GA": {
    "lat": 33.4236984253,
    "long": -84.4999008179,
    "name": "Willow Pond Aviation Inc "
  },
  "19IA": {
    "lat": 40.8568000793,
    "long": -91.2037963867,
    "name": "Ancam Antique Airfield"
  },
  "19IL": {
    "lat": 40.5494003296,
    "long": -89.1060028076,
    "name": "Eagle Pass "
  },
  "19IN": {
    "lat": 40.1944999695,
    "long": -86.5231018066,
    "name": "Clark "
  },
  "19IS": {
    "lat": 38.2958984375,
    "long": -88.5569992065,
    "name": "Skillet Fork Farm "
  },
  "19KY": {
    "lat": 38.7065010071,
    "long": -84.599899292,
    "name": "Conrads "
  },
  "19LL": {
    "lat": 41.2569999695,
    "long": -87.9195022583,
    "name": "Neiner "
  },
  "19NC": {
    "lat": 36.0648994446,
    "long": -77.922996521,
    "name": "Double S "
  },
  "19ND": {
    "lat": 47.7332992554,
    "long": -98.4887008667,
    "name": "Breckheimer "
  },
  "19NE": {
    "lat": 40.1082992554,
    "long": -100.8089981079,
    "name": "Hoyt "
  },
  "19NK": {
    "lat": 43.2439002991,
    "long": -76.1528015137,
    "name": "Riveredge Airpark"
  },
  "19NY": {
    "lat": 42.4062004089,
    "long": -77.9608001709,
    "name": "Four Seasons "
  },
  "19OH": {
    "lat": 41.1730995178,
    "long": -82.0593032837,
    "name": "Harris Corn Field"
  },
  "19OK": {
    "lat": 35.7284011841,
    "long": -95.9772033691,
    "name": "Gerhart "
  },
  "19OR": {
    "lat": 45.1096000671,
    "long": -121.2239990234,
    "name": "Nelson Ranch "
  },
  "19PA": {
    "lat": 41.1170005798,
    "long": -76.5207977295,
    "name": "Lake "
  },
  "19SC": {
    "lat": 34.353833,
    "long": -81.802358,
    "name": "Sexton "
  },
  "19TA": {
    "lat": 32.8222999573,
    "long": -96.4169006348,
    "name": "Lagrone Ranch "
  },
  "19TE": {
    "lat": 30.3169002533,
    "long": -95.3335037231,
    "name": "Cut and Shoot "
  },
  "19TN": {
    "lat": 36.4994010925,
    "long": -87.1902999878,
    "name": "Ferraraccio Field"
  },
  "19TX": {
    "lat": 31.238199234,
    "long": -97.5141983032,
    "name": "Woody Mc Clellan Ranch "
  },
  "19VA": {
    "lat": 36.8897018433,
    "long": -82.2977981567,
    "name": "Flying W "
  },
  "19WA": {
    "lat": 45.7196006775,
    "long": -121.8860015869,
    "name": "Key Way "
  },
  "19WI": {
    "lat": 45.1952018738,
    "long": -92.0570983887,
    "name": "Erickson Field"
  },
  "19XS": {
    "lat": 32.2971992493,
    "long": -97.0868988037,
    "name": "Draggintail Acres "
  },
  "1AK1": {
    "lat": 67.3729019165,
    "long": -152.0160064697,
    "name": "Crevice Creek "
  },
  "1AK2": {
    "lat": 62.4009017944,
    "long": -146.0130004883,
    "name": "Crosswind Lake "
  },
  "1AK4": {
    "lat": 60.5242004395,
    "long": -150.7519989014,
    "name": "Kenai River Airpark"
  },
  "1AK6": {
    "lat": 61.8527984619,
    "long": -151.4080047607,
    "name": "Talachulitna River "
  },
  "1AK8": {
    "lat": 61.6768989563,
    "long": -151.3869934082,
    "name": "Talaheim "
  },
  "1AL2": {
    "lat": 33.2486000061,
    "long": -86.5975036621,
    "name": "Tri-L Acres "
  },
  "1AL4": {
    "lat": 30.5447006226,
    "long": -87.5594024658,
    "name": "Elsanor "
  },
  "1AL5": {
    "lat": 30.6364002228,
    "long": -87.7478027344,
    "name": "Berry Field"
  },
  "1AL8": {
    "lat": 33.6110992432,
    "long": -86.4744033813,
    "name": "Moore Field"
  },
  "1AR0": {
    "lat": 35.3987007141,
    "long": -91.1334991455,
    "name": "Breckenridge "
  },
  "1AR1": {
    "lat": 34.5271987915,
    "long": -91.8727035522,
    "name": "Walls "
  },
  "1AR2": {
    "lat": 34.9868011475,
    "long": -91.5503005981,
    "name": "Taylor Airstrip"
  },
  "1AR3": {
    "lat": 34.9732017517,
    "long": -91.5260009766,
    "name": "Bob Norman Airstrip"
  },
  "1AR4": {
    "lat": 36.0178985596,
    "long": -94.0184020996,
    "name": "Foggy River "
  },
  "1AR5": {
    "lat": 36.2994003296,
    "long": -94.5847015381,
    "name": "Cherokee Strip"
  },
  "1AR6": {
    "lat": 35.5032997131,
    "long": -92.1967010498,
    "name": "Diamond Bluff "
  },
  "1AR8": {
    "lat": 35.3256988525,
    "long": -94.1867980957,
    "name": "Flying W Air Park Inc "
  },
  "1AR9": {
    "lat": 34.8138999939,
    "long": -92,
    "name": "Country Air Estates "
  },
  "1AZ0": {
    "lat": 33.1119003296,
    "long": -112.2689971924,
    "name": "Mobile "
  },
  "1AZ2": {
    "lat": 33.4117012024,
    "long": -112.1819992065,
    "name": "Paradise Air Park"
  },
  "1AZ8": {
    "lat": 35.2957992554,
    "long": -114.3730010986,
    "name": "Willow Springs Ranch "
  },
  "1CA1": {
    "lat": 35.4679985046,
    "long": -119.7220001221,
    "name": "Belridge Strip"
  },
  "1CA4": {
    "lat": 33.8694992065,
    "long": -114.5270004272,
    "name": "Aha-Quin "
  },
  "1CA6": {
    "lat": 32.7650985718,
    "long": -116.7229995728,
    "name": "On the Rocks "
  },
  "1CD1": {
    "lat": 40.6902999878,
    "long": -104.8669967651,
    "name": "Reed "
  },
  "1CD2": {
    "lat": 40.1671981812,
    "long": -104.7929992676,
    "name": "Tonga "
  },
  "1CD4": {
    "lat": 40.5093002319,
    "long": -106.9430007935,
    "name": "Eagle Soaring "
  },
  "1CL1": {
    "lat": 34.7941017151,
    "long": -118.2779998779,
    "name": "Little Buttes Antique Airfield"
  },
  "1CL2": {
    "lat": 34.9425010681,
    "long": -118.1699981689,
    "name": "Pontious "
  },
  "1CO2": {
    "lat": 38.1624984741,
    "long": -108.3399963379,
    "name": "Williams Ranch "
  },
  "1CO3": {
    "lat": 40.7041015625,
    "long": -104.797996521,
    "name": "Bellmore Farms "
  },
  "1CO4": {
    "lat": 38.5750007629,
    "long": -107.9589996338,
    "name": "Clifford Field"
  },
  "1CO5": {
    "lat": 38.0153007507,
    "long": -103.6989974976,
    "name": "Melon Field"
  },
  "1CO7": {
    "lat": 38.551399231,
    "long": -105.9919967651,
    "name": "Dodsworth "
  },
  "1CO8": {
    "lat": 39.5292015076,
    "long": -104.6579971313,
    "name": "Everitt "
  },
  "1DE5": {
    "lat": 39.4956016541,
    "long": -75.7332992554,
    "name": "Mckeown "
  },
  "1FA1": {
    "lat": 28.8558006287,
    "long": -82.5525970459,
    "name": "Post Oak Ranch "
  },
  "1FA3": {
    "lat": 26.6562004089,
    "long": -82.1212005615,
    "name": "Pine Island "
  },
  "1FD0": {
    "lat": 30.7154998779,
    "long": -85.0243988037,
    "name": "Lawrence "
  },
  "1FD2": {
    "lat": 30.6194000244,
    "long": -83.3040008545,
    "name": "Bass Limited "
  },
  "1FD4": {
    "lat": 26.445400238,
    "long": -81.6072998047,
    "name": "Corkscrew Trace Airpark"
  },
  "1FL3": {
    "lat": 30.0344009399,
    "long": -82.7820968628,
    "name": "Z Ranch "
  },
  "1GA0": {
    "lat": 31.6394004822,
    "long": -81.3290023804,
    "name": "Eagle Neck "
  },
  "1GA2": {
    "lat": 33.1772994995,
    "long": -84.7484970093,
    "name": "Flying N Estates "
  },
  "1GA4": {
    "lat": 32.3284988403,
    "long": -81.7554016113,
    "name": "Southern Agricultural Aviation "
  },
  "1GA5": {
    "lat": 30.9309997559,
    "long": -83.3834991455,
    "name": "Shilo Farms "
  },
  "1GA6": {
    "lat": 33.0089988708,
    "long": -84.1107025146,
    "name": "De De "
  },
  "1GA8": {
    "lat": 31.1784992218,
    "long": -83.2265014648,
    "name": "South One Ten "
  },
  "1GA9": {
    "lat": 33.7615013123,
    "long": -83.6527023315,
    "name": "Aerie "
  },
  "1GE2": {
    "lat": 32.8443984985,
    "long": -84.5438995361,
    "name": "C & W Air Park"
  },
  "1GE3": {
    "lat": 33.2538986206,
    "long": -85.1703033447,
    "name": "Answered Prayer "
  },
  "1GE4": {
    "lat": 32.5010986328,
    "long": -83.9332962036,
    "name": "Beckley Farms "
  },
  "1GE5": {
    "lat": 33.1012001038,
    "long": -84.3935012817,
    "name": "Flying D "
  },
  "1GE6": {
    "lat": 31.3724002838,
    "long": -82.1234970093,
    "name": "Forestry-Strip "
  },
  "1GE7": {
    "lat": 33.51720047,
    "long": -83.4396972656,
    "name": "Hay Field"
  },
  "1GE9": {
    "lat": 32.7144012451,
    "long": -84.7181015015,
    "name": "Waverly Landing "
  },
  "1IA0": {
    "lat": 40.8972015381,
    "long": -94.7910995483,
    "name": "Brown Truck Sales "
  },
  "1IA4": {
    "lat": 41.0555000305,
    "long": -94.3946990967,
    "name": "Wallace Field"
  },
  "1IA6": {
    "lat": 40.8849983215,
    "long": -95.4852981567,
    "name": "Aero-Lane "
  },
  "1IA9": {
    "lat": 43.0676994324,
    "long": -93.9021987915,
    "name": "Newbrough "
  },
  "1ID3": {
    "lat": 48.1679992676,
    "long": -116.7269973755,
    "name": "Beaux Ranch Field"
  },
  "1ID4": {
    "lat": 43.3105555556,
    "long": -115.9025,
    "name": "Red Baron Airpark"
  },
  "1ID7": {
    "lat": 42.5877990723,
    "long": -114.3339996338,
    "name": "Fairbanks Airfield"
  },
  "1ID9": {
    "lat": 42.7806015015,
    "long": -112.1709976196,
    "name": "Skyline STOLport"
  },
  "1II0": {
    "lat": 39.5766983032,
    "long": -85.5877990723,
    "name": "Webster "
  },
  "1II2": {
    "lat": 40.6157989502,
    "long": -84.8348007202,
    "name": "Adams "
  },
  "1II3": {
    "lat": 38.9570007324,
    "long": -87.394203186,
    "name": "Davis "
  },
  "1II4": {
    "lat": 38.1250991821,
    "long": -86.1622009277,
    "name": "Amy "
  },
  "1II5": {
    "lat": 41.2472991943,
    "long": -86.5030975342,
    "name": "Van De Mark "
  },
  "1II8": {
    "lat": 39.814201355,
    "long": -85.818901062,
    "name": "Morris "
  },