{
    "1DE5": {
        "lat": 39.4956016541,
        "long": -75.7332992554,
        "name": "Mckeown ",
        "state": "Delaware"
    },
    "23DE": {
        "lat": 39.312567,
        "long": -75.728983,
        "name": "Full Throttle Farm ",
        "state": "Delaware"
    },
    "2DE2": {
        "lat": 38.8549995422,
        "long": -75.5721969604,
        "name": "Willaview ",
        "state": "Delaware"
    },
    "7MD0": {
        "lat": 39.0666999817,
        "long": -75.7332992554,
        "name": "Our Domain ",
        "state": "Delaware"
    },
    "9MD9": {
        "lat": 38.8520011902,
        "long": -75.6893005371,
        "name": "G W Farm ",
        "state": "Delaware"
    },
    "DE00": {
        "lat": 39.0206985474,
        "long": -75.5771026611,
        "name": "Doyle's ",
        "state": "Delaware"
    },
    "DE04": {
        "lat": 39.2916984558,
        "long": -75.5749969482,
        "name": "Newberg ",
        "state": "Delaware"
    },
    "DE07": {
        "lat": 39.1442985535,
        "long": -75.6912994385,
        "name": "Flying C ",
        "state": "Delaware"
    },
    "DE09": {
        "lat": 39.0681991577,
        "long": -75.4885025024,
        "name": "Johnsons ",
        "state": "Delaware"
    },
    "DE10": {
        "lat": 38.9668006897,
        "long": -75.4663009644,
        "name": "Kimbowrosa Farm ",
        "state": "Delaware"
    },
    "DE11": {
        "lat": 38.9057006836,
        "long": -75.4010009766,
        "name": "Drummond ",
        "state": "Delaware"
    },
    "DE12": {
        "lat": 38.8056983948,
        "long": -75.4126968384,
        "name": "Owens Field",
        "state": "Delaware"
    },
    "DE14": {
        "lat": 38.7439994812,
        "long": -75.5348968506,
        "name": "Huey ",
        "state": "Delaware"
    },
    "DE15": {
        "lat": 38.6125984192,
        "long": -75.6996994019,
        "name": "Pevey ",
        "state": "Delaware"
    },
    "DE17": {
        "lat": 38.7779006958,
        "long": -75.5832977295,
        "name": "Sugar Hill ",
        "state": "Delaware"
    },
    "DE19": {
        "lat": 39.3258018494,
        "long": -75.7416000366,
        "name": "Duffy's ",
        "state": "Delaware"
    },
    "DE20": {
        "lat": 39.3736000061,
        "long": -75.7457962036,
        "name": "Spirit Airpark",
        "state": "Delaware"
    },
    "DE21": {
        "lat": 38.5172996521,
        "long": -75.1654968262,
        "name": "West Private ",
        "state": "Delaware"
    },
    "DE23": {
        "lat": 38.7503013611,
        "long": -75.3600006104,
        "name": "Ockel Farms ",
        "state": "Delaware"
    },
    "DE25": {
        "lat": 38.7761001587,
        "long": -75.2335968018,
        "name": "Eagle Crest-Hudson ",
        "state": "Delaware"
    },
    "DE27": {
        "lat": 38.462600708,
        "long": -75.1748962402,
        "name": "Warrington Field",
        "state": "Delaware"
    },
    "DE29": {
        "lat": 39.3750991821,
        "long": -75.6440963745,
        "name": "Scotty's Place ",
        "state": "Delaware"
    },
    "DE32": {
        "lat": 38.9749984741,
        "long": -75.6166992188,
        "name": "Belfair ",
        "state": "Delaware"
    },
    "DE33": {
        "lat": 39.48279953,
        "long": -75.6975021362,
        "name": "Okolona Plantation ",
        "state": "Delaware"
    },
    "DE34": {
        "lat": 39.4142990112,
        "long": -75.6630020142,
        "name": "Townsend A ",
        "state": "Delaware"
    },
    "DE49": {
        "lat": 38.6375999451,
        "long": -75.3552017212,
        "name": "Josephs ",
        "state": "Delaware"
    },
    "KD74": {
        "lat": 38.848400116,
        "long": -75.6123962402,
        "name": "Chorman ",
        "state": "Delaware"
    },
    "KDOV": {
        "lat": 39.12950134,
        "long": -75.46600342,
        "name": "Dover Air Force Base",
        "state": "Delaware"
    },
    "KEVY": {
        "lat": 39.520401001,
        "long": -75.7203979492,
        "name": "Summit ",
        "state": "Delaware"
    },
    "KGED": {
        "lat": 38.68920135,
        "long": -75.35890198,
        "name": "Sussex County ",
        "state": "Delaware"
    },
    "KILG": {
        "lat": 39.67869949,
        "long": -75.60649872,
        "name": "New Castle ",
        "state": "Delaware"
    },
    "KMQY": {
        "lat": 36.0089988708,
        "long": -86.5201034546,
        "name": "Smyrna ",
        "state": "Delaware"
    },
    "KN06": {
        "lat": 38.5421981812,
        "long": -75.5943984985,
        "name": "Laurel ",
        "state": "Delaware"
    }
}