{
  "OKAJ": {
    "lat": 28.9347991943,
    "long": 47.7919006348,
    "name": "Ahmed Al Jaber Air Base"
  },
  "OKAS": {
    "lat": 29.3467006683,
    "long": 47.5208015442,
    "name": "Ali Al Salem Air Base"
  },
  "OKDI": {
    "lat": 29.697599411,
    "long": 47.436000824,
    "name": "Udairi Army Air Field"
  },
  "OKKK": {
    "lat": 29.226600647,
    "long": 47.9688987732,
    "name": "Kuwait International "
  },
  "Z19M": {
    "lat": 29.04529953,
    "long": 47.7907981873,
    "name": "Al Abdaliyah Highway Strip"
  }
}