{
  "FKAB": {
    "lat": 6.7749900818,
    "long": 11.8070001602,
    "name": "Banyo "
  },
  "FKAF": {
    "lat": 4.7670001984,
    "long": 11.2170000076,
    "name": "Bafia "
  },
  "FKAG": {
    "lat": 3.9670000076,
    "long": 13.1999998093,
    "name": "Abong M'bang "
  },
  "FKAN": {
    "lat": 4.9499998093,
    "long": 9.9329996109,
    "name": "Nkongsamba "
  },
  "FKAO": {
    "lat": 5.5041699409,
    "long": 14.0982999802,
    "name": "Betare Oya "
  },
  "FKKB": {
    "lat": 2.8738899231,
    "long": 9.9777803421,
    "name": "Kribi "
  },
  "FKKC": {
    "lat": 4.0891900063,
    "long": 9.3605298996,
    "name": "Tiko "
  },
  "FKKD": {
    "lat": 4.0060801506,
    "long": 9.7194795609,
    "name": "Douala International "
  },
  "FKKE": {
    "lat": 3.6500000954,
    "long": 10.7829999924,
    "name": "Eseka "
  },
  "FKKF": {
    "lat": 5.7041702271,
    "long": 9.3063898087,
    "name": "Mamfe "
  },
  "FKKG": {
    "lat": 5.8952777778,
    "long": 10.0338888889,
    "name": "Bali "
  },
  "FKKH": {
    "lat": 10.092499733,
    "long": 14.445599556,
    "name": "Kaele "
  },
  "FKKI": {
    "lat": 4.4749999046,
    "long": 14.3625001907,
    "name": "Batouri "
  },
  "FKKJ": {
    "lat": 10.3561000824,
    "long": 15.2371997833,
    "name": "Yagoua "
  },
  "FKKL": {
    "lat": 10.4513998032,
    "long": 14.257399559,
    "name": "Salak "
  },
  "FKKM": {
    "lat": 5.6369199753,
    "long": 10.7508001328,
    "name": "Foumban Nkounja "
  },
  "FKKN": {
    "lat": 7.3570098877,
    "long": 13.5592002869,
    "name": "N'Gaoundere "
  },
  "FKKO": {
    "lat": 4.5486102104,
    "long": 13.726099968,
    "name": "Bertoua "
  },
  "FKKR": {
    "lat": 9.3358898163,
    "long": 13.3701000214,
    "name": "Garoua International "
  },
  "FKKS": {
    "lat": 5.4499998093,
    "long": 10.0670003891,
    "name": "Dschang "
  },
  "FKKT": {
    "lat": 6.4829998016,
    "long": 12.6330003738,
    "name": "Tibati "
  },
  "FKKU": {
    "lat": 5.5369200707,
    "long": 10.3545999527,
    "name": "Bafoussam "
  },
  "FKKV": {
    "lat": 6.0392398834,
    "long": 10.1225996017,
    "name": "Bamenda "
  },
  "FKKW": {
    "lat": 2.8759999275,
    "long": 11.1850004196,
    "name": "Ebolowa "
  },
  "FKKY": {
    "lat": 3.83604002,
    "long": 11.5235004425,
    "name": "Yaounde "
  },
  "FKYS": {
    "lat": 3.7225599289,
    "long": 11.5532999039,
    "name": "Yaounde Nsimalen International "
  }
}