{
  "GA1A": {
    "lat": 14.4313001633,
    "long": -11.4397001266,
    "name": "Kayes "
  },
  "GAAO": {
    "lat": 15.6999998093,
    "long": 0.5,
    "name": "Ansongo "
  },
  "GABD": {
    "lat": 14.3330001831,
    "long": -3.5999999046,
    "name": "Bandiagara "
  },
  "GABF": {
    "lat": 13.8000001907,
    "long": -10.8500003815,
    "name": "Bafoulabe "
  },
  "GABG": {
    "lat": 11.4499998093,
    "long": -7.5170001984,
    "name": "Bougouni "
  },
  "GABR": {
    "lat": 17.033000946,
    "long": -0.400000006,
    "name": "Bourem "
  },
  "GABS": {
    "lat": 12.5334997177,
    "long": -7.9499402046,
    "name": "Senou "
  },
  "GADA": {
    "lat": 12.5,
    "long": -6.8000001907,
    "name": "Dioila "
  },
  "GADZ": {
    "lat": 15,
    "long": -2.9170000553,
    "name": "Douentza "
  },
  "GAFD": {
    "lat": 13.1499996185,
    "long": -8.3330001831,
    "name": "Faladie "
  },
  "GAGM": {
    "lat": 16.3614006042,
    "long": -3.5997200012,
    "name": "Goundam "
  },
  "GAGO": {
    "lat": 16.2483997345,
    "long": -0.0054560001,
    "name": "Gao "
  },
  "GAKA": {
    "lat": 12.8330001831,
    "long": -11.25,
    "name": "Kenieba "
  },
  "GAKL": {
    "lat": 18.4330005646,
    "long": 1.4170000553,
    "name": "Kidal "
  },
  "GAKM": {
    "lat": 13.9670000076,
    "long": -5.382999897,
    "name": "Ke-Macina "
  },
  "GAKN": {
    "lat": 13.5329999924,
    "long": -8.0500001907,
    "name": "Kolokani "
  },
  "GAKO": {
    "lat": 12.3830003738,
    "long": -5.4670000076,
    "name": "Koutiala "
  },
  "GAKT": {
    "lat": 13.0670003891,
    "long": -9.4829998016,
    "name": "Kita "
  },
  "GAKY": {
    "lat": 14.4812002182,
    "long": -11.4043998718,
    "name": "Kayes Dag Dag "
  },
  "GAMA": {
    "lat": 13.6999998093,
    "long": -6.0669999123,
    "name": "Markala "
  },
  "GAMB": {
    "lat": 14.5128002167,
    "long": -4.079559803,
    "name": "Ambodedjo "
  },
  "GAMK": {
    "lat": 15.8500003815,
    "long": 2.4330000877,
    "name": "Menaka "
  },
  "GANF": {
    "lat": 15.9329996109,
    "long": -4.0170001984,
    "name": "Niafunke "
  },
  "GANK": {
    "lat": 15.2170000076,
    "long": -7.2670001984,
    "name": "Nara "
  },
  "GANR": {
    "lat": 15.2381000519,
    "long": -9.5761098862,
    "name": "Nioro du Sahel "
  },
  "GASK": {
    "lat": 11.3330001831,
    "long": -5.6999998093,
    "name": "Sikasso "
  },
  "GASO": {
    "lat": 11.5979995728,
    "long": -5.7997097969,
    "name": "Dignangan "
  },
  "GATB": {
    "lat": 16.7304992676,
    "long": -3.0075800419,
    "name": "Timbuktu "
  },
  "GATS": {
    "lat": 20.2430000305,
    "long": 0.9773079753,
    "name": "Tessalit "
  },
  "GAYE": {
    "lat": 15.1330003738,
    "long": -10.5670003891,
    "name": "Yelimane "
  }
}