{
    "00MT": {
        "lat": 48.5374984741,
        "long": -109.7050018311,
        "name": "Sands Ranch ",
        "state": "Montana"
    },
    "01MT": {
        "lat": 48.789100647,
        "long": -114.8799972534,
        "name": "Crystal Lakes Resort ",
        "state": "Montana"
    },
    "02MT": {
        "lat": 47.2374000549,
        "long": -111.7419967651,
        "name": "Barrett Field",
        "state": "Montana"
    },
    "03MT": {
        "lat": 47.2708015442,
        "long": -111.7220001221,
        "name": "Cascade ",
        "state": "Montana"
    },
    "04MT": {
        "lat": 47.1374977778,
        "long": -106.488095,
        "name": "Pluhar ",
        "state": "Montana"
    },
    "06MT": {
        "lat": 48.5583000183,
        "long": -112.1090011597,
        "name": "Torgerson ",
        "state": "Montana"
    },
    "07MT": {
        "lat": 48.4211006165,
        "long": -106.5279998779,
        "name": "Glasgow Industrial ",
        "state": "Montana"
    },
    "08MT": {
        "lat": 47.0638999939,
        "long": -108.8170013428,
        "name": "Clark ",
        "state": "Montana"
    },
    "0MT1": {
        "lat": 47.4975013733,
        "long": -112.3909988403,
        "name": "Williams Field",
        "state": "Montana"
    },
    "0MT4": {
        "lat": 46.2785987854,
        "long": -114.1409988403,
        "name": "Kimp ",
        "state": "Montana"
    },
    "0MT5": {
        "lat": 45.6342010498,
        "long": -108.8489990234,
        "name": "Cottonwood ",
        "state": "Montana"
    },
    "0MT6": {
        "lat": 48.040599823,
        "long": -114.6790008545,
        "name": "Hanson ",
        "state": "Montana"
    },
    "0MT7": {
        "lat": 47.6608009338,
        "long": -115.4039993286,
        "name": "Pinehurst Ranch ",
        "state": "Montana"
    },
    "0MT9": {
        "lat": 48.4832992554,
        "long": -114.4929962158,
        "name": "Lone Hawk ",
        "state": "Montana"
    },
    "10MT": {
        "lat": 47.8333015442,
        "long": -106.4840011597,
        "name": "Hoolie ",
        "state": "Montana"
    },
    "12MT": {
        "lat": 48.7742004395,
        "long": -110.4420013428,
        "name": "Lincolns Field",
        "state": "Montana"
    },
    "13MT": {
        "lat": 48.5208015442,
        "long": -110.1129989624,
        "name": "Sorenson ",
        "state": "Montana"
    },
    "14MT": {
        "lat": 47.0516014099,
        "long": -109.0749969482,
        "name": "Holland Ranch ",
        "state": "Montana"
    },
    "15MT": {
        "lat": 48.5004005432,
        "long": -105.9100036621,
        "name": "Saubak ",
        "state": "Montana"
    },
    "16MT": {
        "lat": 45.4052009583,
        "long": -109.1299972534,
        "name": "Bangart Field",
        "state": "Montana"
    },
    "17MT": {
        "lat": 48.1071014404,
        "long": -114.1770019531,
        "name": "Abel Ranch ",
        "state": "Montana"
    },
    "18MT": {
        "lat": 45.2159996033,
        "long": -113.4990005493,
        "name": "Fish Ranch ",
        "state": "Montana"
    },
    "1MT0": {
        "lat": 45.067401886,
        "long": -111.2969970703,
        "name": "Nine Quarter Circle Ranch ",
        "state": "Montana"
    },
    "1MT2": {
        "lat": 45.9430999756,
        "long": -108.5490036011,
        "name": "Skyrider Ultralightport",
        "state": "Montana"
    },
    "1MT3": {
        "lat": 46.5581016541,
        "long": -112.4120025635,
        "name": "Wood Strip",
        "state": "Montana"
    },
    "1MT4": {
        "lat": 46.6884994507,
        "long": -111.8710021973,
        "name": "Davis ",
        "state": "Montana"
    },
    "1MT6": {
        "lat": 46.3568992615,
        "long": -113.5100021362,
        "name": "Bobcat Field",
        "state": "Montana"
    },
    "1MT7": {
        "lat": 47.4211006165,
        "long": -111.158996582,
        "name": "Prill Field",
        "state": "Montana"
    },
    "1MT9": {
        "lat": 45.7891998291,
        "long": -108.6839981079,
        "name": "Wilcox ",
        "state": "Montana"
    },
    "22MT": {
        "lat": 48.1194000244,
        "long": -114.1699981689,
        "name": "Wounded Buck Ranch ",
        "state": "Montana"
    },
    "23MT": {
        "lat": 45.6571998596,
        "long": -111.0400009155,
        "name": "Waterfall ",
        "state": "Montana"
    },
    "24MT": {
        "lat": 45.6194000244,
        "long": -111.0920028687,
        "name": "Haggerty ",
        "state": "Montana"
    },
    "25MT": {
        "lat": 48.4221992493,
        "long": -106.2529983521,
        "name": "Blatter ",
        "state": "Montana"
    },
    "26MT": {
        "lat": 48.8356018066,
        "long": -110.4420013428,
        "name": "Hutchinson ",
        "state": "Montana"
    },
    "27MT": {
        "lat": 48.3218994141,
        "long": -114.327003479,
        "name": "Rahn ",
        "state": "Montana"
    },
    "28MT": {
        "lat": 46.953556,
        "long": -112.748083,
        "name": "Cain Ranch ",
        "state": "Montana"
    },
    "29MT": {
        "lat": 47.738899231,
        "long": -115.5029983521,
        "name": "Craik ",
        "state": "Montana"
    },
    "2MT0": {
        "lat": 48.2999992371,
        "long": -114.4140014648,
        "name": "Bates Airstrip",
        "state": "Montana"
    },
    "2MT1": {
        "lat": 48.4831008911,
        "long": -113.9589996338,
        "name": "Ryan Field",
        "state": "Montana"
    },
    "2MT2": {
        "lat": 48.2000007629,
        "long": -114.2580032349,
        "name": "Braidwater Farm ",
        "state": "Montana"
    },
    "2MT5": {
        "lat": 45.5941009521,
        "long": -111.1520004272,
        "name": "Briar Creek ",
        "state": "Montana"
    },
    "2MT8": {
        "lat": 45.8151,
        "long": -111.9259,
        "name": "South Boulder ",
        "state": "Montana"
    },
    "2MT9": {
        "lat": 46.513889,
        "long": -112.983333,
        "name": "Gold Creek ",
        "state": "Montana"
    },
    "3MT3": {
        "lat": 46.125556,
        "long": -109.365,
        "name": "Three Cross Ranch ",
        "state": "Montana"
    },
    "41MT": {
        "lat": 48.08715,
        "long": -116.046267,
        "name": "R & R Field",
        "state": "Montana"
    },
    "45MT": {
        "lat": 48.628333,
        "long": -110.469667,
        "name": "Pester ",
        "state": "Montana"
    },
    "4MT1": {
        "lat": 45.8207015991,
        "long": -111.1449966431,
        "name": "Kreikemeier ",
        "state": "Montana"
    },
    "84MT": {
        "lat": 46.280814,
        "long": -114.050214,
        "name": "Shimmon ",
        "state": "Montana"
    },
    "93MT": {
        "lat": 48.100833,
        "long": -114.089167,
        "name": "Masonry Field",
        "state": "Montana"
    },
    "97MT": {
        "lat": 48.0749015808,
        "long": -114.6760025024,
        "name": "Cabin Creek Landing ",
        "state": "Montana"
    },
    "98MT": {
        "lat": 46.4427986145,
        "long": -114.0029983521,
        "name": "Rosemont ",
        "state": "Montana"
    },
    "99MT": {
        "lat": 46.0974998474,
        "long": -114.1780014038,
        "name": "Fox Field",
        "state": "Montana"
    },
    "9MT8": {
        "lat": 45.7580986023,
        "long": -111.0830001831,
        "name": "Monger ",
        "state": "Montana"
    },
    "9MT9": {
        "lat": 45.7907981873,
        "long": -111.125,
        "name": "Mc Kenna ",
        "state": "Montana"
    },
    "K00F": {
        "lat": 45.47249985,
        "long": -105.4540024,
        "name": "Broadus ",
        "state": "Montana"
    },
    "K1S3": {
        "lat": 46.2710990906,
        "long": -106.6240005493,
        "name": "Tillitt Field",
        "state": "Montana"
    },
    "K29S": {
        "lat": 45.0499000549,
        "long": -110.7470016479,
        "name": "Gardiner ",
        "state": "Montana"
    },
    "K32S": {
        "lat": 46.525100708,
        "long": -114.0530014038,
        "name": "Stevensville ",
        "state": "Montana"
    },
    "K38S": {
        "lat": 46.38819885,
        "long": -112.7659988,
        "name": "Deer Lodge City County ",
        "state": "Montana"
    },
    "K3U3": {
        "lat": 46.1530990601,
        "long": -112.8679962158,
        "name": "Bowman Field",
        "state": "Montana"
    },
    "K3U4": {
        "lat": 45.5999984741,
        "long": -106.266998291,
        "name": "St Labre Mission ",
        "state": "Montana"
    },
    "K3U7": {
        "lat": 47.481300354,
        "long": -112.8700027466,
        "name": "Benchmark ",
        "state": "Montana"
    },
    "K3U8": {
        "lat": 48.1624984741,
        "long": -110.1129989624,
        "name": "Big Sandy ",
        "state": "Montana"
    },
    "K3V7": {
        "lat": 45.125,
        "long": -105.0920028687,
        "name": "Belle Creek ",
        "state": "Montana"
    },
    "K42S": {
        "lat": 48.1160011292,
        "long": -105.1819992065,
        "name": "Poplar ",
        "state": "Montana"
    },
    "K48S": {
        "lat": 48.5661010742,
        "long": -108.7730026245,
        "name": "Harlem ",
        "state": "Montana"
    },
    "K4U6": {
        "lat": 47.418598175,
        "long": -105.56199646,
        "name": "Circle Town County ",
        "state": "Montana"
    },
    "K4U9": {
        "lat": 44.7356987,
        "long": -112.720001221,
        "name": "Dell Flight Strip",
        "state": "Montana"
    },
    "K57S": {
        "lat": 48.4802017212,
        "long": -115.9039993286,
        "name": "Troy ",
        "state": "Montana"
    },
    "K5U1": {
        "lat": 47.8471984863,
        "long": -111.6979980469,
        "name": "Dutton ",
        "state": "Montana"
    },
    "K5U5": {
        "lat": 47.6291007996,
        "long": -111.9800033569,
        "name": "Fairfield ",
        "state": "Montana"
    },
    "K6S0": {
        "lat": 45.8064002991,
        "long": -109.9810028076,
        "name": "Big Timber ",
        "state": "Montana"
    },
    "K6S1": {
        "lat": 45.2915992737,
        "long": -108.9260025024,
        "name": "Bridger Municipal ",
        "state": "Montana"
    },
    "K6S3": {
        "lat": 45.6305007935,
        "long": -109.238998413,
        "name": "Woltermann Memorial ",
        "state": "Montana"
    },
    "K6S5": {
        "lat": 46.251499176,
        "long": -114.1259994507,
        "name": "Ravalli County ",
        "state": "Montana"
    },
    "K6S8": {
        "lat": 45.7030982971,
        "long": -108.7610015869,
        "name": "Laurel Municipal ",
        "state": "Montana"
    },
    "K6U7": {
        "lat": 46.2893981934,
        "long": -107.1959991455,
        "name": "Hysham ",
        "state": "Montana"
    },
    "K79S": {
        "lat": 47.8451004028,
        "long": -110.6360015869,
        "name": "Fort Benton ",
        "state": "Montana"
    },
    "K7S0": {
        "lat": 47.567199707,
        "long": -114.1009979248,
        "name": "Ronan ",
        "state": "Montana"
    },
    "K7S1": {
        "lat": 45.5337982178,
        "long": -112.3030014038,
        "name": "Twin Bridges ",
        "state": "Montana"
    },
    "K7S6": {
        "lat": 46.5041007996,
        "long": -110.9130020142,
        "name": "White Sulphur Springs ",
        "state": "Montana"
    },
    "K7S7": {
        "lat": 48.2999992371,
        "long": -112.2509994507,
        "name": "Valier ",
        "state": "Montana"
    },
    "K88M": {
        "lat": 48.9738006592,
        "long": -115.0759963989,
        "name": "Eureka ",
        "state": "Montana"
    },
    "K8S0": {
        "lat": 48.601398468,
        "long": -113.1149978638,
        "name": "Starr Browning Airstrip",
        "state": "Montana"
    },
    "K8S1": {
        "lat": 47.695400238,
        "long": -114.1849975586,
        "name": "Polson ",
        "state": "Montana"
    },
    "K8U6": {
        "lat": 46.7770996094,
        "long": -105.31300354,
        "name": "Terry ",
        "state": "Montana"
    },
    "K8U8": {
        "lat": 46.331199646,
        "long": -111.483001709,
        "name": "Townsend ",
        "state": "Montana"
    },
    "K97M": {
        "lat": 45.8777999878,
        "long": -104.5370025635,
        "name": "Ekalaka ",
        "state": "Montana"
    },
    "K9S2": {
        "lat": 48.8077011108,
        "long": -105.4390029907,
        "name": "Scobey ",
        "state": "Montana"
    },
    "K9S4": {
        "lat": 47.1683006287,
        "long": -114.8539962769,
        "name": "Mineral County ",
        "state": "Montana"
    },
    "K9S5": {
        "lat": 45.8781013489,
        "long": -111.5690002441,
        "name": "Three Forks ",
        "state": "Montana"
    },
    "K9U0": {
        "lat": 48.8541984558,
        "long": -108.408996582,
        "name": "Turner ",
        "state": "Montana"
    },
    "KBHK": {
        "lat": 46.34759903,
        "long": -104.2590027,
        "name": "Baker Municipal ",
        "state": "Montana"
    },
    "KBIL": {
        "lat": 45.8077011108,
        "long": -108.5429992676,
        "name": "Billings Logan International ",
        "state": "Montana"
    },
    "KBTM": {
        "lat": 45.9547996521,
        "long": -112.4970016479,
        "name": "Bert Mooney ",
        "state": "Montana"
    },
    "KBZN": {
        "lat": 45.77750015,
        "long": -111.1529999,
        "name": "Gallatin Field",
        "state": "Montana"
    },
    "KCII": {
        "lat": 47.8283004761,
        "long": -112.1679992676,
        "name": "Choteau ",
        "state": "Montana"
    },
    "KCTB": {
        "lat": 48.6083984375,
        "long": -112.3759994507,
        "name": "Cut Bank Municipal ",
        "state": "Montana"
    },
    "KDLN": {
        "lat": 45.2554016113,
        "long": -112.5530014038,
        "name": "Dillon ",
        "state": "Montana"
    },
    "KEKS": {
        "lat": 45.27180099,
        "long": -111.6490021,
        "name": "Ennis Big Sky ",
        "state": "Montana"
    },
    "KF02": {
        "lat": 45.7249984741,
        "long": -107.6009979248,
        "name": "Fairgrounds Airpark",
        "state": "Montana"
    },
    "KGDV": {
        "lat": 47.13869858,
        "long": -104.8069992,
        "name": "Dawson Community ",
        "state": "Montana"
    },
    "KGGW": {
        "lat": 48.2125015259,
        "long": -106.6149978638,
        "name": "Wokal Field Glasgow International ",
        "state": "Montana"
    },
    "KGPI": {
        "lat": 48.3105010986,
        "long": -114.2559967041,
        "name": "Glacier Park International ",
        "state": "Montana"
    },
    "KGTF": {
        "lat": 47.48199844,
        "long": -111.3710022,
        "name": "Great Falls International ",
        "state": "Montana"
    },
    "KHLN": {
        "lat": 46.6068000793,
        "long": -111.983001709,
        "name": "Helena Regional ",
        "state": "Montana"
    },
    "KHVR": {
        "lat": 48.54299927,
        "long": -109.762001,
        "name": "Havre City County ",
        "state": "Montana"
    },
    "KHWQ": {
        "lat": 46.44860077,
        "long": -109.8529968,
        "name": "Wheatland County At Harlowton ",
        "state": "Montana"
    },
    "KJDN": {
        "lat": 47.3288002014,
        "long": -106.9530029297,
        "name": "Jordan ",
        "state": "Montana"
    },
    "KLTY": {
        "lat": 48.5107002258,
        "long": -110.9909973145,
        "name": "Liberty County ",
        "state": "Montana"
    },
    "KLVM": {
        "lat": 45.6994018555,
        "long": -110.4479980469,
        "name": "Mission Field",
        "state": "Montana"
    },
    "KLWT": {
        "lat": 47.0493011475,
        "long": -109.4670028687,
        "name": "Lewistown Municipal ",
        "state": "Montana"
    },
    "KM46": {
        "lat": 45.8529014587,
        "long": -106.7089996338,
        "name": "Colstrip ",
        "state": "Montana"
    },
    "KM75": {
        "lat": 48.3669013977,
        "long": -107.9189987183,
        "name": "Malta ",
        "state": "Montana"
    },
    "KMLS": {
        "lat": 46.4280014038,
        "long": -105.8860015869,
        "name": "Frank Wiley Field",
        "state": "Montana"
    },
    "KMSO": {
        "lat": 46.91630173,
        "long": -114.0910034,
        "name": "Missoula International ",
        "state": "Montana"
    },
    "KOLF": {
        "lat": 48.0945014954,
        "long": -105.5749969482,
        "name": "L M Clayton ",
        "state": "Montana"
    },
    "KPWD": {
        "lat": 48.7902984619,
        "long": -104.533996582,
        "name": "Sher Wood ",
        "state": "Montana"
    },
    "KRED": {
        "lat": 45.1874008179,
        "long": -109.266998291,
        "name": "Red Lodge ",
        "state": "Montana"
    },
    "KRPX": {
        "lat": 46.4749984741,
        "long": -108.5429992676,
        "name": "Roundup ",
        "state": "Montana"
    },
    "KS01": {
        "lat": 48.168598175,
        "long": -111.9759979248,
        "name": "Conrad ",
        "state": "Montana"
    },
    "KS27": {
        "lat": 48.1786003113,
        "long": -114.3040008545,
        "name": "Kalispell City ",
        "state": "Montana"
    },
    "KS34": {
        "lat": 47.47240067,
        "long": -114.9000015,
        "name": "Plains ",
        "state": "Montana"
    },
    "KS59": {
        "lat": 48.2837982178,
        "long": -115.4899978638,
        "name": "Libby ",
        "state": "Montana"
    },
    "KS64": {
        "lat": 47.14720154,
        "long": -110.2300034,
        "name": "Stanford ",
        "state": "Montana"
    },
    "KS69": {
        "lat": 46.95439911,
        "long": -112.6500015,
        "name": "Lincoln ",
        "state": "Montana"
    },
    "KS71": {
        "lat": 48.5920982361,
        "long": -109.2509994507,
        "name": "Edgar G Obie ",
        "state": "Montana"
    },
    "KS85": {
        "lat": 48.153301239,
        "long": -104.5039978027,
        "name": "Big Sky Field",
        "state": "Montana"
    },
    "KSBX": {
        "lat": 48.5406990051,
        "long": -111.8710021973,
        "name": "Shelby ",
        "state": "Montana"
    },
    "KSDY": {
        "lat": 47.70690155,
        "long": -104.1930008,
        "name": "Sidney Richland Municipal ",
        "state": "Montana"
    },
    "KTHM": {
        "lat": 47.5735015869,
        "long": -115.28099823,
        "name": "Thompson Falls ",
        "state": "Montana"
    },
    "KU05": {
        "lat": 46.3194007874,
        "long": -113.3050003052,
        "name": "Riddick Field",
        "state": "Montana"
    },
    "KU09": {
        "lat": 48.481098175,
        "long": -108.7689971924,
        "name": "Fort Belknap Agency ",
        "state": "Montana"
    },
    "KWYS": {
        "lat": 44.68840027,
        "long": -111.1179962,
        "name": "Yellowstone ",
        "state": "Montana"
    },
    "MT01": {
        "lat": 47.6180000305,
        "long": -110.0920028687,
        "name": "Owen Bros ",
        "state": "Montana"
    },
    "MT02": {
        "lat": 48.5382995605,
        "long": -111.4970016479,
        "name": "Hellinger ",
        "state": "Montana"
    },
    "MT03": {
        "lat": 47.993408,
        "long": -114.224306,
        "name": "Lakeside ",
        "state": "Montana"
    },
    "MT04": {
        "lat": 48.4042015076,
        "long": -106.0090026855,
        "name": "Olfert ",
        "state": "Montana"
    },
    "MT05": {
        "lat": 45.6680984497,
        "long": -104.7030029297,
        "name": "Laird Ranch ",
        "state": "Montana"
    },
    "MT06": {
        "lat": 46.5702018738,
        "long": -112.1750030518,
        "name": "Duncan ",
        "state": "Montana"
    },
    "MT07": {
        "lat": 46.0415992737,
        "long": -110.158996582,
        "name": "Langhus Airstrip",
        "state": "Montana"
    },
    "MT08": {
        "lat": 47.9166984558,
        "long": -108.483001709,
        "name": "Zortman ",
        "state": "Montana"
    },
    "MT09": {
        "lat": 48.8459014893,
        "long": -106.6090011597,
        "name": "Floyd Ranch ",
        "state": "Montana"
    },
    "MT11": {
        "lat": 48.3166999817,
        "long": -106.8339996338,
        "name": "Etchart Field",
        "state": "Montana"
    },
    "MT12": {
        "lat": 45.9384994507,
        "long": -112.5640029907,
        "name": "Smith Field",
        "state": "Montana"
    },
    "MT14": {
        "lat": 45.8235015869,
        "long": -112.8860015869,
        "name": "Jerry Creek ",
        "state": "Montana"
    },
    "MT15": {
        "lat": 46.6258010864,
        "long": -112.11000061,
        "name": "Fort Harrison Army Airfield",
        "state": "Montana"
    },
    "MT16": {
        "lat": 47.0138015747,
        "long": -113.2829971313,
        "name": "Buffalo Trail Ranch Strip",
        "state": "Montana"
    },
    "MT17": {
        "lat": 48.9049987793,
        "long": -114.3820037842,
        "name": "Wurtz ",
        "state": "Montana"
    },
    "MT18": {
        "lat": 48.28995,
        "long": -114.182867,
        "name": "Hoerner ",
        "state": "Montana"
    },
    "MT19": {
        "lat": 47.5909996033,
        "long": -114.0520019531,
        "name": "Olson ",
        "state": "Montana"
    },
    "MT20": {
        "lat": 46.8582992554,
        "long": -104.0989990234,
        "name": "Hollstein Ranch ",
        "state": "Montana"
    },
    "MT21": {
        "lat": 45.901599884,
        "long": -112.5490036011,
        "name": "Flying Arrow Ranch ",
        "state": "Montana"
    },
    "MT22": {
        "lat": 45.3998985291,
        "long": -112.1669998169,
        "name": "Tezak's-Colterville-Spur ",
        "state": "Montana"
    },
    "MT24": {
        "lat": 46.9721984863,
        "long": -109.6139984131,
        "name": "Beacon Star Antique Airfield",
        "state": "Montana"
    },
    "MT26": {
        "lat": 47.470500946,
        "long": -111.2369995117,
        "name": "Ranch Strip",
        "state": "Montana"
    },
    "MT29": {
        "lat": 46.4789009094,
        "long": -105.858001709,
        "name": "Sunday Creek Airpark",
        "state": "Montana"
    },
    "MT30": {
        "lat": 45.9402008057,
        "long": -114.1370010376,
        "name": "Trapper Creek Strip",
        "state": "Montana"
    },
    "MT32": {
        "lat": 46.5387992859,
        "long": -114.0400009155,
        "name": "Ckye Field",
        "state": "Montana"
    },
    "MT33": {
        "lat": 47.4094009399,
        "long": -111.4869995117,
        "name": "Bair ",
        "state": "Montana"
    },
    "MT34": {
        "lat": 46.1333007813,
        "long": -107.5510025024,
        "name": "Ruff ",
        "state": "Montana"
    },
    "MT36": {
        "lat": 46.1321983337,
        "long": -110.0469970703,
        "name": "Cottontail Ranch ",
        "state": "Montana"
    },
    "MT37": {
        "lat": 48.1246986389,
        "long": -114.2399978638,
        "name": "Sanders ",
        "state": "Montana"
    },
    "MT38": {
        "lat": 48.4034004211,
        "long": -105.1569976807,
        "name": "Swank ",
        "state": "Montana"
    },
    "MT39": {
        "lat": 47.1059989929,
        "long": -113.3170013428,
        "name": "Black Canyon Ranch ",
        "state": "Montana"
    },
    "MT40": {
        "lat": 47.5913009644,
        "long": -111.2720031738,
        "name": "Horner Field",
        "state": "Montana"
    },
    "MT41": {
        "lat": 45.8782997131,
        "long": -112.1169967651,
        "name": "Jefco Skypark ",
        "state": "Montana"
    },
    "MT42": {
        "lat": 45.9104995728,
        "long": -111.513999939,
        "name": "Hasskamp STOLport",
        "state": "Montana"
    },
    "MT43": {
        "lat": 46.3462982178,
        "long": -112.34400177,
        "name": "Klies Air Strip",
        "state": "Montana"
    },
    "MT45": {
        "lat": 45.9089012146,
        "long": -104.5759963989,
        "name": "Castleberry ",
        "state": "Montana"
    },
    "MT46": {
        "lat": 44.617099762,
        "long": -111.797996521,
        "name": "Lakeview ",
        "state": "Montana"
    },
    "MT47": {
        "lat": 44.6869010925,
        "long": -111.8939971924,
        "name": "Metzel Creek ",
        "state": "Montana"
    },
    "MT48": {
        "lat": 45.4347000122,
        "long": -110.6439971924,
        "name": "Flying Y Ranch ",
        "state": "Montana"
    },
    "MT49": {
        "lat": 46.923500061,
        "long": -114.0879974365,
        "name": "Ford's South ",
        "state": "Montana"
    },
    "MT50": {
        "lat": 45.0877990723,
        "long": -104.8190002441,
        "name": "Lanning Ranch ",
        "state": "Montana"
    },
    "MT51": {
        "lat": 48.2770004272,
        "long": -105.9619979858,
        "name": "Zerbe ",
        "state": "Montana"
    },
    "MT52": {
        "lat": 47.0777015686,
        "long": -114.4130020142,
        "name": "Nine Mile ",
        "state": "Montana"
    },
    "MT53": {
        "lat": 48.0946998596,
        "long": -114.8519973755,
        "name": "Carson Field",
        "state": "Montana"
    },
    "MT54": {
        "lat": 48.2439002991,
        "long": -114.2440032959,
        "name": "Weaver ",
        "state": "Montana"
    },
    "MT58": {
        "lat": 47.7667007446,
        "long": -106.18800354,
        "name": "Nelson ",
        "state": "Montana"
    },
    "MT59": {
        "lat": 45.26720047,
        "long": -104.8570022583,
        "name": "Gardner ",
        "state": "Montana"
    },
    "MT60": {
        "lat": 48.8143997192,
        "long": -114.3539962769,
        "name": "Langton Airstrip",
        "state": "Montana"
    },
    "MT62": {
        "lat": 47.0666007996,
        "long": -114.4840011597,
        "name": "Ted Luark Private STOLport",
        "state": "Montana"
    },
    "MT63": {
        "lat": 46.5555000305,
        "long": -114.0729980469,
        "name": "Lee Metcalf National Wildlife Refuge ",
        "state": "Montana"
    },
    "MT68": {
        "lat": 46.6208000183,
        "long": -111.93800354,
        "name": "Wood Strip",
        "state": "Montana"
    },
    "MT71": {
        "lat": 45.7240982056,
        "long": -111.0429992676,
        "name": "Edsall Field",
        "state": "Montana"
    },
    "MT72": {
        "lat": 46.3460006714,
        "long": -114.1760025024,
        "name": "Hedditch ",
        "state": "Montana"
    },
    "MT73": {
        "lat": 46.8507995605,
        "long": -113.5380020142,
        "name": "Camas ",
        "state": "Montana"
    },
    "MT74": {
        "lat": 46.1068992615,
        "long": -104.4150009155,
        "name": "Sikorski Ranch ",
        "state": "Montana"
    },
    "MT75": {
        "lat": 47.4301986694,
        "long": -111.4599990845,
        "name": "Buchanan Ranch ",
        "state": "Montana"
    },
    "MT76": {
        "lat": 47.3997001648,
        "long": -111.4700012207,
        "name": "Smith Farms ",
        "state": "Montana"
    },
    "MT77": {
        "lat": 47.6082992554,
        "long": -110.90599823,
        "name": "Peterson Ranch ",
        "state": "Montana"
    },
    "MT79": {
        "lat": 47.5842018127,
        "long": -108.7089996338,
        "name": "Sand Creek Wildlife Station ",
        "state": "Montana"
    },
    "MT80": {
        "lat": 48.0430984497,
        "long": -105.6090011597,
        "name": "Vine ",
        "state": "Montana"
    },
    "MT81": {
        "lat": 45.8035011292,
        "long": -111.1380004883,
        "name": "Thompson Field",
        "state": "Montana"
    },
    "MT82": {
        "lat": 46.3083000183,
        "long": -109.8720016479,
        "name": "Baxter Strip",
        "state": "Montana"
    },
    "MT83": {
        "lat": 46.5716018677,
        "long": -112.1809997559,
        "name": "Ten Mile ",
        "state": "Montana"
    },
    "MT84": {
        "lat": 48.2207984924,
        "long": -114.3759994507,
        "name": "Mower Field",
        "state": "Montana"
    },
    "MT85": {
        "lat": 48.7588996887,
        "long": -106.364997864,
        "name": "Redfield Ag Strip",
        "state": "Montana"
    },
    "MT86": {
        "lat": 47.1689987183,
        "long": -112.0849990845,
        "name": "Bar E ",
        "state": "Montana"
    },
    "MT87": {
        "lat": 48.6666984558,
        "long": -105.9339981079,
        "name": "Oglesby Farms Inc ",
        "state": "Montana"
    },
    "MT88": {
        "lat": 48.0043983459,
        "long": -114.9990005493,
        "name": "Campbell Ranch ",
        "state": "Montana"
    },
    "MT89": {
        "lat": 45.7999000549,
        "long": -110.533996582,
        "name": "Foster Ranches ",
        "state": "Montana"
    },
    "MT90": {
        "lat": 48.3877983093,
        "long": -105.3349990845,
        "name": "J B ",
        "state": "Montana"
    },
    "MT93": {
        "lat": 46.2871017456,
        "long": -112.7580032349,
        "name": "Larner Field",
        "state": "Montana"
    },
    "MT94": {
        "lat": 45.2466011047,
        "long": -111.3290023804,
        "name": "Ousel Falls ",
        "state": "Montana"
    },
    "MT95": {
        "lat": 48.1169013977,
        "long": -114.1859970093,
        "name": "Flathead Lake Sky Ranch ",
        "state": "Montana"
    },
    "MT96": {
        "lat": 46.7402000427,
        "long": -112.0350036621,
        "name": "Wilhelm Airstrip",
        "state": "Montana"
    },
    "MT97": {
        "lat": 47.9785995483,
        "long": -115.7679977417,
        "name": "Frampton ",
        "state": "Montana"
    },
    "MT98": {
        "lat": 47.6980018616,
        "long": -115.5510025024,
        "name": "Big Beaver Creek Ranch ",
        "state": "Montana"
    },
    "WY06": {
        "lat": 44.8382987976,
        "long": -109.6220016479,
        "name": "Luckinbill Airstrip",
        "state": "Montana"
    }
}