{
    "00IL": {
        "lat": 41.9784011841,
        "long": -89.5604019165,
        "name": "Hammer ",
        "state": "Illinois"
    },
    "00IS": {
        "lat": 40.0256004333,
        "long": -89.1229019165,
        "name": "Hayenga's Cant Find Farms ",
        "state": "Illinois"
    },
    "01IS": {
        "lat": 39.0162010193,
        "long": -90.3181991577,
        "name": "William E. Koenig ",
        "state": "Illinois"
    },
    "01LL": {
        "lat": 38.1258010864,
        "long": -89.4638977051,
        "name": "Schumaier Restricted Landing Area",
        "state": "Illinois"
    },
    "03IL": {
        "lat": 41.4023017883,
        "long": -87.8167037964,
        "name": "Wix ",
        "state": "Illinois"
    },
    "04IL": {
        "lat": 40.6375007629,
        "long": -89.0070037842,
        "name": "Schertz Aerial Service - Hudson ",
        "state": "Illinois"
    },
    "04IS": {
        "lat": 40.1786003113,
        "long": -88.5690002441,
        "name": "Van Gorder ",
        "state": "Illinois"
    },
    "04LL": {
        "lat": 42.136100769,
        "long": -88.2875976563,
        "name": "Brunner ",
        "state": "Illinois"
    },
    "05IL": {
        "lat": 41.1567001343,
        "long": -88.0167007446,
        "name": "Classic Landings ",
        "state": "Illinois"
    },
    "05IS": {
        "lat": 39.7258987427,
        "long": -89.263999939,
        "name": "Hardy ",
        "state": "Illinois"
    },
    "06IL": {
        "lat": 41.5994987488,
        "long": -88.8699035645,
        "name": "Humm ",
        "state": "Illinois"
    },
    "06IS": {
        "lat": 40.5463981628,
        "long": -91.2742996216,
        "name": "Sinele Strip",
        "state": "Illinois"
    },
    "08IL": {
        "lat": 41.5769996643,
        "long": -89.7939987183,
        "name": "Harms Airstrip",
        "state": "Illinois"
    },
    "08IS": {
        "lat": 37.9777984619,
        "long": -89.2029037476,
        "name": "Hemmer RLA Restricted Landing Area",
        "state": "Illinois"
    },
    "08LL": {
        "lat": 41.0752983093,
        "long": -88.4891967773,
        "name": "Sauer ",
        "state": "Illinois"
    },
    "09LL": {
        "lat": 42.4681015015,
        "long": -88.7432022095,
        "name": "Pine Hill ",
        "state": "Illinois"
    },
    "0IL2": {
        "lat": 38.803056,
        "long": -88.997778,
        "name": "Griffin ",
        "state": "Illinois"
    },
    "0IL3": {
        "lat": 40.1570014954,
        "long": -87.6744995117,
        "name": "Flying B Ranch ",
        "state": "Illinois"
    },
    "0IL8": {
        "lat": 41.8725013733,
        "long": -88.7237014771,
        "name": "Walter ",
        "state": "Illinois"
    },
    "0IL9": {
        "lat": 41.854801178,
        "long": -88.7873001099,
        "name": "Jack W. Watson ",
        "state": "Illinois"
    },
    "0IS3": {
        "lat": 41.6608009338,
        "long": -89.6936035156,
        "name": "Cady Aerial RLA Restricted Landing Area",
        "state": "Illinois"
    },
    "0IS4": {
        "lat": 39.7625007629,
        "long": -88.6715011597,
        "name": "Dawson Farms ",
        "state": "Illinois"
    },
    "0LL0": {
        "lat": 42.2647018433,
        "long": -88.7300033569,
        "name": "Kaufield ",
        "state": "Illinois"
    },
    "0LL1": {
        "lat": 39.0942001343,
        "long": -90.3134002686,
        "name": "Jerseyville Aviation Inc ",
        "state": "Illinois"
    },
    "0LL2": {
        "lat": 40.738899231,
        "long": -90.3806991577,
        "name": "Murk's Strip",
        "state": "Illinois"
    },
    "0LL3": {
        "lat": 39.0550003052,
        "long": -90.3421020508,
        "name": "Koenig ",
        "state": "Illinois"
    },
    "0LL4": {
        "lat": 41.4192008972,
        "long": -89.1231002808,
        "name": "Flaherty Field",
        "state": "Illinois"
    },
    "0LL5": {
        "lat": 40.1100006104,
        "long": -88.0783996582,
        "name": "Busboom RLA Restricted Landing Area",
        "state": "Illinois"
    },
    "0LL6": {
        "lat": 41.6983985901,
        "long": -88.6075973511,
        "name": "Gord ",
        "state": "Illinois"
    },
    "11LL": {
        "lat": 40.7230987549,
        "long": -88.7630996704,
        "name": "Thacker ",
        "state": "Illinois"
    },
    "12IL": {
        "lat": 41.2000007629,
        "long": -88.0167007446,
        "name": "Hawker ",
        "state": "Illinois"
    },
    "12LL": {
        "lat": 37.5402984619,
        "long": -89.4861984253,
        "name": "Lambdins Field",
        "state": "Illinois"
    },
    "15IL": {
        "lat": 41.7972984314,
        "long": -89.2732009888,
        "name": "Gittleson Farms ",
        "state": "Illinois"
    },
    "15LL": {
        "lat": 41.2374992371,
        "long": -89.5366973877,
        "name": "Cloverleaf Ranch ",
        "state": "Illinois"
    },
    "16IL": {
        "lat": 42.0666999817,
        "long": -88.8333969116,
        "name": "Harold Bunger ",
        "state": "Illinois"
    },
    "16IS": {
        "lat": 37.5778007507,
        "long": -89.0092010498,
        "name": "Kellums ",
        "state": "Illinois"
    },
    "17LL": {
        "lat": 40.1605987549,
        "long": -88.4103012085,
        "name": "Oink Acres ",
        "state": "Illinois"
    },
    "19IL": {
        "lat": 40.5494003296,
        "long": -89.1060028076,
        "name": "Eagle Pass ",
        "state": "Illinois"
    },
    "19IS": {
        "lat": 38.2958984375,
        "long": -88.5569992065,
        "name": "Skillet Fork Farm ",
        "state": "Illinois"
    },
    "19LL": {
        "lat": 41.2569999695,
        "long": -87.9195022583,
        "name": "Neiner ",
        "state": "Illinois"
    },
    "1IL0": {
        "lat": 40.7750015259,
        "long": -89.0010986328,
        "name": "Barnstorm Field",
        "state": "Illinois"
    },
    "1IL1": {
        "lat": 39.2444992065,
        "long": -89.4259033203,
        "name": "Horsefeathers Ranch ",
        "state": "Illinois"
    },
    "1IL2": {
        "lat": 40.3470001221,
        "long": -89.470703125,
        "name": "Hobby Hideaway RLA",
        "state": "Illinois"
    },
    "1IL4": {
        "lat": 38.4187011719,
        "long": -90.1312026978,
        "name": "Heitman Aerdrome ",
        "state": "Illinois"
    },
    "1IL6": {
        "lat": 41.8666992188,
        "long": -89.4418029785,
        "name": "Bally's Strip",
        "state": "Illinois"
    },
    "1IL8": {
        "lat": 40.9319992065,
        "long": -87.5959014893,
        "name": "Loy ",
        "state": "Illinois"
    },
    "1IL9": {
        "lat": 40.3005981445,
        "long": -89.1243972778,
        "name": "Holland Field",
        "state": "Illinois"
    },
    "1IS0": {
        "lat": 38.5242004395,
        "long": -89.9322967529,
        "name": "Harold Emmerich ",
        "state": "Illinois"
    },
    "1IS2": {
        "lat": 39.8964004517,
        "long": -88.5223007202,
        "name": "Triple Creek ",
        "state": "Illinois"
    },
    "1IS3": {
        "lat": 39.7277984619,
        "long": -89.0595016479,
        "name": "Cribbet ",
        "state": "Illinois"
    },
    "1IS4": {
        "lat": 42.1344985962,
        "long": -89.8246002197,
        "name": "Swan Valley Farm ",
        "state": "Illinois"
    },
    "1IS5": {
        "lat": 41.6530990601,
        "long": -89.0015029907,
        "name": "Walder's Farm ",
        "state": "Illinois"
    },
    "1LL0": {
        "lat": 41.3292007446,
        "long": -88.6000976563,
        "name": "Boondox Field",
        "state": "Illinois"
    },
    "1LL2": {
        "lat": 41.3005981445,
        "long": -88.635597229,
        "name": "Spring Brook ",
        "state": "Illinois"
    },
    "1LL4": {
        "lat": 39.1833992004,
        "long": -89.7001037598,
        "name": "Sies Landing Area ",
        "state": "Illinois"
    },
    "1LL6": {
        "lat": 42.228099823,
        "long": -89.7381973267,
        "name": "Janssen ",
        "state": "Illinois"
    },
    "1LL7": {
        "lat": 41.3498001099,
        "long": -89.7732009888,
        "name": "Edwin G. Bennett ",
        "state": "Illinois"
    },
    "1LL8": {
        "lat": 40.788898468,
        "long": -87.5584030151,
        "name": "Zoomer Field",
        "state": "Illinois"
    },
    "20IS": {
        "lat": 42.4972000122,
        "long": -89.7918014526,
        "name": "Mitek ",
        "state": "Illinois"
    },
    "22IL": {
        "lat": 42.4119987488,
        "long": -90.400100708,
        "name": "Heller ",
        "state": "Illinois"
    },
    "22IS": {
        "lat": 40.7262001038,
        "long": -91.0699005127,
        "name": "Johnson Farm ",
        "state": "Illinois"
    },
    "22LL": {
        "lat": 41.3134002686,
        "long": -88.8606033325,
        "name": "Pike's ",
        "state": "Illinois"
    },
    "23IS": {
        "lat": 40.3259010315,
        "long": -90.8275985718,
        "name": "Clark ",
        "state": "Illinois"
    },
    "24LL": {
        "lat": 38.0862007141,
        "long": -89.4589996338,
        "name": "Lambert ",
        "state": "Illinois"
    },
    "25IL": {
        "lat": 39.5167007446,
        "long": -89.8582992554,
        "name": "Bob Davis Flying Service ",
        "state": "Illinois"
    },
    "25LL": {
        "lat": 40.7523002625,
        "long": -88.2228012085,
        "name": "Bradbury ",
        "state": "Illinois"
    },
    "26IL": {
        "lat": 42.1197013855,
        "long": -89.3733978271,
        "name": "Duane E. Davis ",
        "state": "Illinois"
    },
    "26IS": {
        "lat": 40.7667007446,
        "long": -88.5055999756,
        "name": "Ficklin-Airtech ",
        "state": "Illinois"
    },
    "26LL": {
        "lat": 42.0094985962,
        "long": -88.7175979614,
        "name": "Anderson ",
        "state": "Illinois"
    },
    "27IS": {
        "lat": 38.1488990784,
        "long": -88.6703033447,
        "name": "Gelfius International ",
        "state": "Illinois"
    },
    "27LL": {
        "lat": 38.3750991821,
        "long": -90.3192977905,
        "name": "Ralph Jacobs ",
        "state": "Illinois"
    },
    "28IL": {
        "lat": 42.0971984863,
        "long": -89.4192962646,
        "name": "West Grove ",
        "state": "Illinois"
    },
    "28IS": {
        "lat": 39.1948013306,
        "long": -89.3117980957,
        "name": "O K Flying Club Inc ",
        "state": "Illinois"
    },
    "28LL": {
        "lat": 39.4603004456,
        "long": -88.8684005737,
        "name": "Williamson ",
        "state": "Illinois"
    },
    "2IL0": {
        "lat": 42.1814002991,
        "long": -89.676902771,
        "name": "Sneek ",
        "state": "Illinois"
    },
    "2IL1": {
        "lat": 42.413898468,
        "long": -89.3292999268,
        "name": "Mc Cartney ",
        "state": "Illinois"
    },
    "2IL2": {
        "lat": 41.0533981323,
        "long": -88.4611968994,
        "name": "Watters ",
        "state": "Illinois"
    },
    "2IL3": {
        "lat": 41.5158996582,
        "long": -90.3796005249,
        "name": "Mc Neal's Field",
        "state": "Illinois"
    },
    "2IL4": {
        "lat": 39.7792015076,
        "long": -90.7485961914,
        "name": "Mountain ",
        "state": "Illinois"
    },
    "2IL5": {
        "lat": 37.9342002869,
        "long": -88.2316970825,
        "name": "Sutton ",
        "state": "Illinois"
    },
    "2IL6": {
        "lat": 39.1375007629,
        "long": -90.6299972534,
        "name": "Low and Slow ",
        "state": "Illinois"
    },
    "2IL7": {
        "lat": 38.5153007507,
        "long": -90.0279006958,
        "name": "Ben Emge ",
        "state": "Illinois"
    },
    "2IL9": {
        "lat": 41.432800293,
        "long": -87.7817001343,
        "name": "Meadow Creek ",
        "state": "Illinois"
    },
    "2IS3": {
        "lat": 41.1716995239,
        "long": -89.8068008423,
        "name": "Jackson Field",
        "state": "Illinois"
    },
    "2IS4": {
        "lat": 41.3370018005,
        "long": -91.0131988525,
        "name": "Ritter Field",
        "state": "Illinois"
    },
    "2IS5": {
        "lat": 40.9523010254,
        "long": -89.4078979492,
        "name": "Parrish RLA Restricted Landing Area",
        "state": "Illinois"
    },
    "2IS6": {
        "lat": 42.4180984497,
        "long": -89.8226013184,
        "name": "Red Shed Field",
        "state": "Illinois"
    },
    "2IS7": {
        "lat": 42.0606002808,
        "long": -89.00340271,
        "name": "Somers Blossom ",
        "state": "Illinois"
    },
    "2IS9": {
        "lat": 40.5780982971,
        "long": -88.7078018188,
        "name": "Schertz Aerial Service - Cooksville ",
        "state": "Illinois"
    },
    "2LL1": {
        "lat": 41.5416984558,
        "long": -88.6890029907,
        "name": "Cwian Field",
        "state": "Illinois"
    },
    "2LL2": {
        "lat": 41.3148002625,
        "long": -90.5521011353,
        "name": "Weihler ",
        "state": "Illinois"
    },
    "2LL3": {
        "lat": 40.3889007568,
        "long": -89.0691986084,
        "name": "Roy Burden Restricted Landing Area",
        "state": "Illinois"
    },
    "2LL4": {
        "lat": 39.7498016357,
        "long": -88.9794998169,
        "name": "Snow ",
        "state": "Illinois"
    },
    "2LL5": {
        "lat": 39.9986000061,
        "long": -88.0599975586,
        "name": "Justus ",
        "state": "Illinois"
    },
    "2LL7": {
        "lat": 40.9347000122,
        "long": -88.7376022339,
        "name": "Adams Restricted Landing Area Number 2",
        "state": "Illinois"
    },
    "2LL9": {
        "lat": 41.7042007446,
        "long": -88.6930999756,
        "name": "George ",
        "state": "Illinois"
    },
    "30IS": {
        "lat": 42.0772018433,
        "long": -88.6250991821,
        "name": "Aero Lake Estates ",
        "state": "Illinois"
    },
    "30LL": {
        "lat": 39.7541999817,
        "long": -90.3654022217,
        "name": "Williams Airpark",
        "state": "Illinois"
    },
    "31LL": {
        "lat": 40.7785987854,
        "long": -88.6661987305,
        "name": "Seeman ",
        "state": "Illinois"
    },
    "32IS": {
        "lat": 40.1352996826,
        "long": -91.0095977783,
        "name": "Baker ",
        "state": "Illinois"
    },
    "32LL": {
        "lat": 41.7042007446,
        "long": -90.259803772,
        "name": "The Sandbox ",
        "state": "Illinois"
    },
    "33IL": {
        "lat": 40.1660995483,
        "long": -88.8983001709,
        "name": "John Scharff ",
        "state": "Illinois"
    },
    "33IS": {
        "lat": 39.5444984436,
        "long": -88.757598877,
        "name": "Howell ",
        "state": "Illinois"
    },
    "33LL": {
        "lat": 39.0875015259,
        "long": -88.2889022827,
        "name": "Isley ",
        "state": "Illinois"
    },
    "34IL": {
        "lat": 40.3624992371,
        "long": -90.1084976196,
        "name": "G. Bray ",
        "state": "Illinois"
    },
    "34IS": {
        "lat": 41.4448013306,
        "long": -88.7166976929,
        "name": "Jim Wehrli Memorial ",
        "state": "Illinois"
    },
    "35IL": {
        "lat": 41.5339012146,
        "long": -89.202796936,
        "name": "Clarion Field",
        "state": "Illinois"
    },
    "35IS": {
        "lat": 39.5284004211,
        "long": -88.763999939,
        "name": "Enoch ",
        "state": "Illinois"
    },
    "36IS": {
        "lat": 40.926399231,
        "long": -90.7312011719,
        "name": "Gillen ",
        "state": "Illinois"
    },
    "37IL": {
        "lat": 40.1333999634,
        "long": -89.3251037598,
        "name": "Minder ",
        "state": "Illinois"
    },
    "37IS": {
        "lat": 42.3321990967,
        "long": -88.6055984497,
        "name": "Hilbert ",
        "state": "Illinois"
    },
    "37LL": {
        "lat": 38.0477981567,
        "long": -89.9971008301,
        "name": "Dale Curten Farm ",
        "state": "Illinois"
    },
    "38IS": {
        "lat": 40.5820007324,
        "long": -91.3584976196,
        "name": "Winchester ",
        "state": "Illinois"
    },
    "39IL": {
        "lat": 40.0938987732,
        "long": -89.3628997803,
        "name": "Mason ",
        "state": "Illinois"
    },
    "39IS": {
        "lat": 41.1100006104,
        "long": -88.7956008911,
        "name": "Hagi Landing Area ",
        "state": "Illinois"
    },
    "39LL": {
        "lat": 40.401389,
        "long": -91.303056,
        "name": "Sullivan ",
        "state": "Illinois"
    },
    "3IL1": {
        "lat": 38.9253005981,
        "long": -89.6622009277,
        "name": "Silver Creek Gliderport",
        "state": "Illinois"
    },
    "3IL2": {
        "lat": 41.4123001099,
        "long": -88.0486984253,
        "name": "Sweedler ",
        "state": "Illinois"
    },
    "3IL7": {
        "lat": 41.8033981323,
        "long": -89.0217971802,
        "name": "Home Free ",
        "state": "Illinois"
    },
    "3IL9": {
        "lat": 40.2694015503,
        "long": -89.3022003174,
        "name": "Sugar Creek Farm ",
        "state": "Illinois"
    },
    "3IS1": {
        "lat": 39.7000007629,
        "long": -89.2089996338,
        "name": "Mc Coy ",
        "state": "Illinois"
    },
    "3IS2": {
        "lat": 40.7406005859,
        "long": -90.6696014404,
        "name": "Earp ",
        "state": "Illinois"
    },
    "3IS3": {
        "lat": 39.7333984375,
        "long": -89.150100708,
        "name": "Noland RLA Restricted Landing Area",
        "state": "Illinois"
    },
    "3IS4": {
        "lat": 42.288898468,
        "long": -90.3453979492,
        "name": "Merkle ",
        "state": "Illinois"
    },
    "3IS5": {
        "lat": 39.6845016479,
        "long": -89.5987014771,
        "name": "Holmes ",
        "state": "Illinois"
    },
    "3IS6": {
        "lat": 38.2228012085,
        "long": -88.8827972412,
        "name": "Davy Jones /Private/ ",
        "state": "Illinois"
    },
    "3IS7": {
        "lat": 41.0867004395,
        "long": -89.0959014893,
        "name": "Foote ",
        "state": "Illinois"
    },
    "3IS8": {
        "lat": 41.2308998108,
        "long": -89.6156997681,
        "name": "Rinkenberger Restricted Landing Area",
        "state": "Illinois"
    },
    "3LL0": {
        "lat": 42.4916992188,
        "long": -89.0959014893,
        "name": "Miller ",
        "state": "Illinois"
    },
    "3LL1": {
        "lat": 38.2223014832,
        "long": -89.7042999268,
        "name": "Herschel Hunter ",
        "state": "Illinois"
    },
    "3LL3": {
        "lat": 39.4460983276,
        "long": -87.6445007324,
        "name": "Kibler ",
        "state": "Illinois"
    },
    "3LL4": {
        "lat": 42.4472007751,
        "long": -88.201499939,
        "name": "Pillow Hill ",
        "state": "Illinois"
    },
    "3LL5": {
        "lat": 42.4645004272,
        "long": -88.2342987061,
        "name": "Richardson Field",
        "state": "Illinois"
    },
    "3LL6": {
        "lat": 38.335,
        "long": -89.769722,
        "name": "Bickel ",
        "state": "Illinois"
    },
    "3LL8": {
        "lat": 38.0741996765,
        "long": -88.5375976562,
        "name": "Mc Leansboro ",
        "state": "Illinois"
    },
    "3LL9": {
        "lat": 38.8041992188,
        "long": -89.6089019775,
        "name": "Compton ",
        "state": "Illinois"
    },
    "3LS7": {
        "lat": 39.9864006042,
        "long": -89.5117034912,
        "name": "Bock Farms ",
        "state": "Illinois"
    },
    "40IL": {
        "lat": 41.0057983398,
        "long": -88.6580963135,
        "name": "Antique Aerodrome",
        "state": "Illinois"
    },
    "41IL": {
        "lat": 42.0694999695,
        "long": -89.0334014893,
        "name": "Alcock RLA Restricted Landing Area",
        "state": "Illinois"
    },
    "41IS": {
        "lat": 41.204498291,
        "long": -88.8033981323,
        "name": "Rees Field",
        "state": "Illinois"
    },
    "44IS": {
        "lat": 39.7448005676,
        "long": -91.0748977661,
        "name": "Potter ",
        "state": "Illinois"
    },
    "47IL": {
        "lat": 40.9506988525,
        "long": -88.2705993652,
        "name": "Godbee RLA Restricted Landing Area",
        "state": "Illinois"
    },
    "47IS": {
        "lat": 42.4916992188,
        "long": -89.3569030762,
        "name": "Flying Z Ranch ",
        "state": "Illinois"
    },
    "48IL": {
        "lat": 38.9700012207,
        "long": -90.2472000122,
        "name": "Lake West Wind ",
        "state": "Illinois"
    },
    "48IS": {
        "lat": 40.6021995544,
        "long": -88.8333969116,
        "name": "P.J. Killian ",
        "state": "Illinois"
    },
    "48LL": {
        "lat": 42.1253013611,
        "long": -89.4589996338,
        "name": "Rock Cut Farms ",
        "state": "Illinois"
    },
    "49IL": {
        "lat": 41.5932998657,
        "long": -88.6917037964,
        "name": "Walnut Creek ",
        "state": "Illinois"
    },
    "4IL2": {
        "lat": 40.8083992004,
        "long": -88.5417022705,
        "name": "Wayne Ziller Jr ",
        "state": "Illinois"
    },
    "4IL3": {
        "lat": 42.1427993774,
        "long": -89.2284011841,
        "name": "Thrifty Acres STOLport",
        "state": "Illinois"
    },
    "4IL4": {
        "lat": 39.0564002991,
        "long": -88.8161010742,
        "name": "Kuebler RLA Restricted Landing Area",
        "state": "Illinois"
    },
    "4IL5": {
        "lat": 41.7249984741,
        "long": -90.0050964355,
        "name": "Frank's Flying Service ",
        "state": "Illinois"
    },
    "4IL8": {
        "lat": 37.7563018799,
        "long": -89.3833007813,
        "name": "Rendleman ",
        "state": "Illinois"
    },
    "4IL9": {
        "lat": 40.8274993896,
        "long": -89.1207962036,
        "name": "Unzicker ",
        "state": "Illinois"
    },
    "4IS1": {
        "lat": 39.7731018066,
        "long": -88.4486999512,
        "name": "Kamm ",
        "state": "Illinois"
    },
    "4IS5": {
        "lat": 38.2583999634,
        "long": -89.9381027222,
        "name": "Smith Restricted Landing Area",
        "state": "Illinois"
    },
    "4IS6": {
        "lat": 40.9305992126,
        "long": -89.1205978394,
        "name": "Hattan Farms ",
        "state": "Illinois"
    },
    "4IS7": {
        "lat": 40.0731010437,
        "long": -88.3994979858,
        "name": "Litchfield RLA Restricted Landing Area",
        "state": "Illinois"
    },
    "4IS8": {
        "lat": 40.0217018127,
        "long": -89.5501022339,
        "name": "Leigh Farm ",
        "state": "Illinois"
    },
    "4IS9": {
        "lat": 39.085899353,
        "long": -89.9589004517,
        "name": "Weidner ",
        "state": "Illinois"
    },
    "4LL0": {
        "lat": 41.835899353,
        "long": -89.0933990479,
        "name": "Ranken ",
        "state": "Illinois"
    },
    "4LL1": {
        "lat": 41.8541984558,
        "long": -89.087600708,
        "name": "Staton ",
        "state": "Illinois"
    },
    "4LL3": {
        "lat": 42.3083000183,
        "long": -89.9834976196,
        "name": "John L Coppernoll ",
        "state": "Illinois"
    },
    "4LL4": {
        "lat": 40.9757995605,
        "long": -87.9985961914,
        "name": "Enjoy Field",
        "state": "Illinois"
    },
    "4LL7": {
        "lat": 42,
        "long": -88.6668014526,
        "name": "Willadae Farms ",
        "state": "Illinois"
    },
    "4LL8": {
        "lat": 42.0027999878,
        "long": -88.6458969116,
        "name": "Colonial Acres ",
        "state": "Illinois"
    },
    "4LL9": {
        "lat": 39.3437004089,
        "long": -89.4236984253,
        "name": "Alan B. Janssen ",
        "state": "Illinois"
    },
    "50IL": {
        "lat": 42.488899231,
        "long": -88.1743011475,
        "name": "Midland ",
        "state": "Illinois"
    },
    "51IL": {
        "lat": 40.2717018127,
        "long": -88.4944992065,
        "name": "Marvin D Bradd ",
        "state": "Illinois"
    },
    "51IS": {
        "lat": 39.659198761,
        "long": -90.7001037598,
        "name": "Curry ",
        "state": "Illinois"
    },
    "52IL": {
        "lat": 40.4103012085,
        "long": -88.0649032593,
        "name": "Hasselbring ",
        "state": "Illinois"
    },
    "53IL": {
        "lat": 40.1528015137,
        "long": -88.5167007446,
        "name": "Clapper ",
        "state": "Illinois"
    },
    "54IL": {
        "lat": 41.1286010742,
        "long": -88.8020019531,
        "name": "Rothrock ",
        "state": "Illinois"
    },
    "54IS": {
        "lat": 41.5266990662,
        "long": -89.4180984497,
        "name": "Zea Mays Field",
        "state": "Illinois"
    },
    "55IL": {
        "lat": 41.2778015137,
        "long": -87.822303772,
        "name": "Brandt ",
        "state": "Illinois"
    },
    "55IS": {
        "lat": 39.5250015259,
        "long": -87.8059005737,
        "name": "Glatthaar ",
        "state": "Illinois"
    },
    "55LL": {
        "lat": 42.1542015076,
        "long": -88.5114974976,
        "name": "Sky Soaring ",
        "state": "Illinois"
    },
    "56IL": {
        "lat": 42.4625015259,
        "long": -88.875,
        "name": "Lee Creek ",
        "state": "Illinois"
    },
    "56IS": {
        "lat": 40.2430992126,
        "long": -88.0828018188,
        "name": "Schmidt ",
        "state": "Illinois"
    },
    "56LL": {
        "lat": 41.7550010681,
        "long": -88.7712020874,
        "name": "Wade ",
        "state": "Illinois"
    },
    "57IS": {
        "lat": 38.3166999817,
        "long": -88.2723007202,
        "name": "Dozier ",
        "state": "Illinois"
    },
    "58IL": {
        "lat": 41.2383995056,
        "long": -87.8594970703,
        "name": "Spangler ",
        "state": "Illinois"
    },
    "59IL": {
        "lat": 41.9258003235,
        "long": -88.6464004517,
        "name": "Ruder ",
        "state": "Illinois"
    },
    "5IL2": {
        "lat": 38.0638999939,
        "long": -89.387802124,
        "name": "Panther Field",
        "state": "Illinois"
    },
    "5IS3": {
        "lat": 38.0783996582,
        "long": -89.979598999,
        "name": "Riverveiw ",
        "state": "Illinois"
    },
    "5IS4": {
        "lat": 39.7661018372,
        "long": -88.7795028687,
        "name": "Corman Acres ",
        "state": "Illinois"
    },
    "5IS7": {
        "lat": 40.038898468,
        "long": -87.7817001343,
        "name": "Cast ",
        "state": "Illinois"
    },
    "5IS9": {
        "lat": 40.3306007385,
        "long": -91.0501022339,
        "name": "Mc Pherson ",
        "state": "Illinois"
    },
    "5LL0": {
        "lat": 38.4084014893,
        "long": -87.8375015259,
        "name": "Beckerman Field",
        "state": "Illinois"
    },
    "5LL1": {
        "lat": 39.6500015259,
        "long": -88.9750976563,
        "name": "Hilvety ",
        "state": "Illinois"
    },
    "5LL2": {
        "lat": 39.6083984375,
        "long": -88.8583984375,
        "name": "Paul E. Kroenlein ",
        "state": "Illinois"
    },
    "5LL3": {
        "lat": 39.7695007324,
        "long": -88.0952987671,
        "name": "Mayhall ",
        "state": "Illinois"
    },
    "5LL5": {
        "lat": 40.7014007568,
        "long": -89.8840026855,
        "name": "Gordon Brown ",
        "state": "Illinois"
    },
    "5LL7": {
        "lat": 42.2106018066,
        "long": -88.5150985718,
        "name": "Hilbert's Funny Farm ",
        "state": "Illinois"
    },
    "5LL8": {
        "lat": 41.1123008728,
        "long": -88.1400985718,
        "name": "Hugh Van Voorst ",
        "state": "Illinois"
    },
    "60IS": {
        "lat": 38.4006004333,
        "long": -87.9886016846,
        "name": "Nelson Private ",
        "state": "Illinois"
    },
    "61IS": {
        "lat": 41.0547981262,
        "long": -88.387298584,
        "name": "Jim & Peg RLA Restricted Landing Area",
        "state": "Illinois"
    },
    "61LL": {
        "lat": 38.7731018066,
        "long": -89.5935974121,
        "name": "Smith Restricted Landing Area",
        "state": "Illinois"
    },
    "62IL": {
        "lat": 42.1861000061,
        "long": -88.6043014526,
        "name": "Ferris Field",
        "state": "Illinois"
    },
    "62IS": {
        "lat": 40.0875015259,
        "long": -87.9075012207,
        "name": "Wilson ",
        "state": "Illinois"
    },
    "63IL": {
        "lat": 42.1833992004,
        "long": -88.5944976807,
        "name": "Emerick ",
        "state": "Illinois"
    },
    "63IS": {
        "lat": 40.7692985535,
        "long": -88.9831008911,
        "name": "Corn Alley ",
        "state": "Illinois"
    },
    "64IL": {
        "lat": 42.2416992188,
        "long": -88.6668014526,
        "name": "Walpole ",
        "state": "Illinois"
    },
    "65IL": {
        "lat": 42.2009010315,
        "long": -88.6222991943,
        "name": "Far Field",
        "state": "Illinois"
    },
    "65IS": {
        "lat": 41.0238990784,
        "long": -88.9837036133,
        "name": "Frings ",
        "state": "Illinois"
    },
    "66IL": {
        "lat": 42.2691993713,
        "long": -88.5711975098,
        "name": "Aerogrange ",
        "state": "Illinois"
    },
    "67IL": {
        "lat": 41.3666992188,
        "long": -88.650100708,
        "name": "Mitchell RLA Restricted Landing Area",
        "state": "Illinois"
    },
    "67LL": {
        "lat": 41.9902992249,
        "long": -89.3314971924,
        "name": "County Poor Farm ",
        "state": "Illinois"
    },
    "68IL": {
        "lat": 41.3950004578,
        "long": -88.6828994751,
        "name": "Prairie Lake Hunt Club ",
        "state": "Illinois"
    },
    "68IS": {
        "lat": 42.148601532,
        "long": -88.5597991943,
        "name": "Casa De Aero Park ",
        "state": "Illinois"
    },
    "69IL": {
        "lat": 41.3652992249,
        "long": -88.6791992188,
        "name": "David Gillespie ",
        "state": "Illinois"
    },
    "69IS": {
        "lat": 40.579498291,
        "long": -91.2918014526,
        "name": "Sinele's Sunset Strip",
        "state": "Illinois"
    },
    "69LL": {
        "lat": 41.2869987488,
        "long": -91.0487976074,
        "name": "Maas Airstrip",
        "state": "Illinois"
    },
    "6IL0": {
        "lat": 42.131401062,
        "long": -88.699798584,
        "name": "Ramme ",
        "state": "Illinois"
    },
    "6IL2": {
        "lat": 42.2210998535,
        "long": -88.4179000854,
        "name": "Phyllis Field",
        "state": "Illinois"
    },
    "6IL3": {
        "lat": 42.1666984558,
        "long": -89.5000991821,
        "name": "Rummel Restricted Landing Area",
        "state": "Illinois"
    },
    "6IL4": {
        "lat": 42.1603012085,
        "long": -89.8861999512,
        "name": "Foxfield Aerodrome",
        "state": "Illinois"
    },
    "6IL5": {
        "lat": 37.3863983154,
        "long": -89.1604003906,
        "name": "Keil ",
        "state": "Illinois"
    },
    "6IL6": {
        "lat": 42.1184005737,
        "long": -88.4078979492,
        "name": "Reid Restricted Landing Area",
        "state": "Illinois"
    },
    "6IS0": {
        "lat": 40.0950012207,
        "long": -88.1287002563,
        "name": "Day Aero-Place ",
        "state": "Illinois"
    },
    "6IS8": {
        "lat": 39.9894981384,
        "long": -87.9052963257,
        "name": "Trisler ",
        "state": "Illinois"
    },
    "6LL0": {
        "lat": 39.318901062,
        "long": -88.4250030518,
        "name": "Williamson ",
        "state": "Illinois"
    },
    "6LL1": {
        "lat": 39.3138999939,
        "long": -88.3444976807,
        "name": "Cumberland Air Park RLA Restricted Landing Area",
        "state": "Illinois"
    },
    "6LL2": {
        "lat": 41.1645011902,
        "long": -90.5574035645,
        "name": "Young ",
        "state": "Illinois"
    },
    "6LL4": {
        "lat": 38.2675018311,
        "long": -89.8917999268,
        "name": "Wildy Field",
        "state": "Illinois"
    },
    "6LL5": {
        "lat": 39.7895011902,
        "long": -89.9912033081,
        "name": "Smith Restricted Landing Area",
        "state": "Illinois"
    },
    "6LL6": {
        "lat": 38.4916992188,
        "long": -89.6633987427,
        "name": "Fischer's RLA Restricted Landing Area",
        "state": "Illinois"
    },
    "6LL8": {
        "lat": 40.792301178,
        "long": -87.7253036499,
        "name": "Songwood Inn ",
        "state": "Illinois"
    },
    "70IL": {
        "lat": 39.4235992432,
        "long": -89.5682983398,
        "name": "Murphy Farms ",
        "state": "Illinois"
    },
    "70LL": {
        "lat": 40.9416999817,
        "long": -88.7500991821,
        "name": "Adams Restricted Landing Area Number 1",
        "state": "Illinois"
    },
    "71IS": {
        "lat": 40.4255981445,
        "long": -88.0006027222,
        "name": "Ted's Place ",
        "state": "Illinois"
    },
    "71LL": {
        "lat": 40.8424987793,
        "long": -88.5597991943,
        "name": "Riverode Farms ",
        "state": "Illinois"
    },
    "72IS": {
        "lat": 41.6253013611,
        "long": -88.5745010376,
        "name": "Wiley Updike ",
        "state": "Illinois"
    },
    "72LL": {
        "lat": 41.3736000061,
        "long": -89.3444976807,
        "name": "Foley ",
        "state": "Illinois"
    },
    "75IS": {
        "lat": 41.8992004395,
        "long": -89.1704025269,
        "name": "Reinke ",
        "state": "Illinois"
    },
    "75LL": {
        "lat": 41.0835990906,
        "long": -89.7582015991,
        "name": "Hausmann ",
        "state": "Illinois"
    },
    "77LL": {
        "lat": 42.4235992432,
        "long": -90.5043029785,
        "name": "Briggs Brothers Airfield",
        "state": "Illinois"
    },
    "79IL": {
        "lat": 41.7966995239,
        "long": -89.2303009033,
        "name": "Miller ",
        "state": "Illinois"
    },
    "79IS": {
        "lat": 39.4448013306,
        "long": -90.5621032715,
        "name": "Hartwell Ranch RLA Restricted Landing Area",
        "state": "Illinois"
    },
    "7IL0": {
        "lat": 41.2709007263,
        "long": -87.577796936,
        "name": "Mussman ",
        "state": "Illinois"
    },
    "7IL2": {
        "lat": 42.3684005737,
        "long": -87.9916992188,
        "name": "O John Clark Restricted Landing Area",
        "state": "Illinois"
    },
    "7IL3": {
        "lat": 40.4283981323,
        "long": -89.6020965576,
        "name": "Lutz RLA Restricted Landing Area",
        "state": "Illinois"
    },
    "7IL6": {
        "lat": 42.1305999756,
        "long": -88.5028991699,
        "name": "Dr Joseph W Esser ",
        "state": "Illinois"
    },
    "7IL7": {
        "lat": 42.126701355,
        "long": -88.5334014893,
        "name": "Edward Getzelman ",
        "state": "Illinois"
    },
    "7IL8": {
        "lat": 41.518901825,
        "long": -88.837600708,
        "name": "Cody Port RLA Restricted Landing Area",
        "state": "Illinois"
    },
    "7IL9": {
        "lat": 41.5438995361,
        "long": -88.9934005737,
        "name": "Ambler - Cady ",
        "state": "Illinois"
    },
    "7IS2": {
        "lat": 38.5245018005,
        "long": -90.0569000244,
        "name": "Aero Estates ",
        "state": "Illinois"
    },
    "7IS3": {
        "lat": 40.1433982849,
        "long": -89.091796875,
        "name": "Hooterville ",
        "state": "Illinois"
    },
    "7IS5": {
        "lat": 42.1213989258,
        "long": -88.3780975342,
        "name": "Koppie ",
        "state": "Illinois"
    },
    "7IS7": {
        "lat": 38.913898468,
        "long": -89.6700973511,
        "name": "Hammock Field",
        "state": "Illinois"
    },
    "7IS9": {
        "lat": 38.476398468,
        "long": -90.2361984253,
        "name": "King ",
        "state": "Illinois"
    },
    "7LL3": {
        "lat": 38.9317016602,
        "long": -88.1569976807,
        "name": "Jasper County Flying Club ",
        "state": "Illinois"
    },
    "7LL4": {
        "lat": 40.1172981262,
        "long": -88.7590026855,
        "name": "Bakers Strip",
        "state": "Illinois"
    },
    "7LL6": {
        "lat": 41.6974983215,
        "long": -89.1443023682,
        "name": "Gehant ",
        "state": "Illinois"
    },
    "7LL7": {
        "lat": 41.7360992432,
        "long": -89.1723022461,
        "name": "Delhotal ",
        "state": "Illinois"
    },
    "7LL8": {
        "lat": 39.3525009155,
        "long": -89.3009033203,
        "name": "Dahler ",
        "state": "Illinois"
    },
    "7LL9": {
        "lat": 38.2616996765,
        "long": -89.4709014893,
        "name": "Brammeier ",
        "state": "Illinois"
    },
    "80IS": {
        "lat": 39.4169998169,
        "long": -90.5859985352,
        "name": "Martin ",
        "state": "Illinois"
    },
    "81IL": {
        "lat": 40.4352989197,
        "long": -89.3592987061,
        "name": "Illinois Valley Parachute Club ",
        "state": "Illinois"
    },
    "81LL": {
        "lat": 41.5691986084,
        "long": -89.1736984253,
        "name": "Otterbach Farm ",
        "state": "Illinois"
    },
    "82IS": {
        "lat": 42.1431007385,
        "long": -88.4029006958,
        "name": "Landings Condominium ",
        "state": "Illinois"
    },
    "82LL": {
        "lat": 42.1295013428,
        "long": -88.9923019409,
        "name": "Cheechako ",
        "state": "Illinois"
    },
    "83IL": {
        "lat": 40.8927993774,
        "long": -89.1039962769,
        "name": "Oltman-Shuck ",
        "state": "Illinois"
    },
    "83IS": {
        "lat": 38.426399231,
        "long": -89.1312026978,
        "name": "Prairie ",
        "state": "Illinois"
    },
    "83LL": {
        "lat": 38.3036003113,
        "long": -89.8551025391,
        "name": "Lindauer ",
        "state": "Illinois"
    },
    "84IL": {
        "lat": 41.5069999695,
        "long": -88.2778015137,
        "name": "Rossi's Farm ",
        "state": "Illinois"
    },
    "85IL": {
        "lat": 39.637298584,
        "long": -88.6359024048,
        "name": "Durbin ",
        "state": "Illinois"
    },
    "85LL": {
        "lat": 41.6838989258,
        "long": -88.262298584,
        "name": "Wormley ",
        "state": "Illinois"
    },
    "86IL": {
        "lat": 39.681667,
        "long": -88.764444,
        "name": "Sharp ",
        "state": "Illinois"
    },
    "86IS": {
        "lat": 40.7793998718,
        "long": -89.2577972412,
        "name": "Michael Pfister ",
        "state": "Illinois"
    },
    "87IL": {
        "lat": 41.5167007446,
        "long": -88.2667007446,
        "name": "Bushby RLA Restricted Landing Area",
        "state": "Illinois"
    },
    "87IS": {
        "lat": 39.8861999512,
        "long": -91.3207015991,
        "name": "Seigfried Halfpap ",
        "state": "Illinois"
    },
    "88IL": {
        "lat": 42.4131011963,
        "long": -88.7332992554,
        "name": "Mary's Landing ",
        "state": "Illinois"
    },
    "88IS": {
        "lat": 40.0083999634,
        "long": -91.3821029663,
        "name": "Blickhan Lndg Area ",
        "state": "Illinois"
    },
    "88LL": {
        "lat": 42.1916999817,
        "long": -89.8382034302,
        "name": "Block ",
        "state": "Illinois"
    },
    "89IS": {
        "lat": 38.2167015076,
        "long": -89.9750976563,
        "name": "Voges Airstrip",
        "state": "Illinois"
    },
    "89LL": {
        "lat": 41.3583984375,
        "long": -87.7249984741,
        "name": "Norman ",
        "state": "Illinois"
    },
    "8IL0": {
        "lat": 42.3527984619,
        "long": -88.634803772,
        "name": "Adkins RLA Restricted Landing Area",
        "state": "Illinois"
    },
    "8IL1": {
        "lat": 42.4084014893,
        "long": -88.6529006958,
        "name": "Twin Gardens ",
        "state": "Illinois"
    },
    "8IL2": {
        "lat": 42.4846992493,
        "long": -88.6000976563,
        "name": "Kirkpatrick ",
        "state": "Illinois"
    },
    "8IL3": {
        "lat": 41.7380981445,
        "long": -89.1624984741,
        "name": "Butler Hill RLA Restricted Landing Area",
        "state": "Illinois"
    },
    "8IL5": {
        "lat": 42.3680992126,
        "long": -89.3542022705,
        "name": "O'Connor Field",
        "state": "Illinois"
    },
    "8IL6": {
        "lat": 38.8594017029,
        "long": -88.6585998535,
        "name": "Robertson's Roost ",
        "state": "Illinois"
    },
    "8IS1": {
        "lat": 39.307800293,
        "long": -89.9932022095,
        "name": "Nelson ",
        "state": "Illinois"
    },
    "8IS5": {
        "lat": 40.8166999817,
        "long": -87.9916992188,
        "name": "Raymond Classen Memorial ",
        "state": "Illinois"
    },
    "8LL0": {
        "lat": 38.8875007629,
        "long": -89.5572967529,
        "name": "Nance ",
        "state": "Illinois"
    },
    "8LL1": {
        "lat": 42.3567008972,
        "long": -88.5062026978,
        "name": "Hunter ",
        "state": "Illinois"
    },
    "8LL2": {
        "lat": 41.3694992065,
        "long": -89.5597991943,
        "name": "Eckberg ",
        "state": "Illinois"
    },
    "8LL3": {
        "lat": 39.7092005795,
        "long": -89.4898438454,
        "name": "Hundley ",
        "state": "Illinois"
    },
    "8LL7": {
        "lat": 39.5945014954,
        "long": -89.5944976807,
        "name": "Donald A. Hamilton ",
        "state": "Illinois"
    },
    "90IL": {
        "lat": 41.1981010437,
        "long": -87.5588989258,
        "name": "Johnson ",
        "state": "Illinois"
    },
    "91IS": {
        "lat": 39.8236999512,
        "long": -89.5039978027,
        "name": "Stanton ",
        "state": "Illinois"
    },
    "91LS": {
        "lat": 38.2089004517,
        "long": -90.0372009277,
        "name": "Duclos RLA Restricted Landing Area",
        "state": "Illinois"
    },
    "92IL": {
        "lat": 37.038898468,
        "long": -89.3208999634,
        "name": "Hunter Raffety Elevators Inc ",
        "state": "Illinois"
    },
    "92IS": {
        "lat": 39.7420005798,
        "long": -89.4784011841,
        "name": "Taft ",
        "state": "Illinois"
    },
    "93IL": {
        "lat": 42.0675010681,
        "long": -89.0231018066,
        "name": "Bauer ",
        "state": "Illinois"
    },
    "93LL": {
        "lat": 41.5945014954,
        "long": -88.6055984497,
        "name": "Hemmingsen ",
        "state": "Illinois"
    },
    "94IL": {
        "lat": 38.917301178,
        "long": -89.2256011963,
        "name": "Lutz ",
        "state": "Illinois"
    },
    "94IS": {
        "lat": 37.9028015137,
        "long": -89.1376037598,
        "name": "Adams Private ",
        "state": "Illinois"
    },
    "95IL": {
        "lat": 37.4861984253,
        "long": -88.4000015259,
        "name": "Henderson ",
        "state": "Illinois"
    },
    "95IS": {
        "lat": 40.3706016541,
        "long": -91.3889007568,
        "name": "Jan Knipe ",
        "state": "Illinois"
    },
    "95LL": {
        "lat": 41.6478004456,
        "long": -88.6943969727,
        "name": "Warren ",
        "state": "Illinois"
    },
    "96IL": {
        "lat": 42.375,
        "long": -89.8460006714,
        "name": "Kramer ",
        "state": "Illinois"
    },
    "96IS": {
        "lat": 39.875,
        "long": -87.8450012207,
        "name": "Hildreth Air Park",
        "state": "Illinois"
    },
    "96LL": {
        "lat": 40.6161003113,
        "long": -87.6141967773,
        "name": "Wichman ",
        "state": "Illinois"
    },
    "98LL": {
        "lat": 40.7991981506,
        "long": -87.7835998535,
        "name": "Braden Farms ",
        "state": "Illinois"
    },
    "99IL": {
        "lat": 42.2867012024,
        "long": -89.9574966431,
        "name": "Providence Place Field",
        "state": "Illinois"
    },
    "9IL0": {
        "lat": 41.0945014954,
        "long": -89.3861999512,
        "name": "Villiger Restricted Landing Area",
        "state": "Illinois"
    },
    "9IL2": {
        "lat": 40.0649986267,
        "long": -88.0263977051,
        "name": "Routh ",
        "state": "Illinois"
    },
    "9IL3": {
        "lat": 40.2820014954,
        "long": -89.029296875,
        "name": "Wm Quinton Restricted Landing Area",
        "state": "Illinois"
    },
    "9IL4": {
        "lat": 41.8072013855,
        "long": -89.0481033325,
        "name": "Thompson ",
        "state": "Illinois"
    },
    "9IL6": {
        "lat": 40.5130996704,
        "long": -89.3673019409,
        "name": "Weishaupt ",
        "state": "Illinois"
    },
    "9IL7": {
        "lat": 41.5097999573,
        "long": -90.1820983887,
        "name": "Black ",
        "state": "Illinois"
    },
    "9IS0": {
        "lat": 40.5430984497,
        "long": -91.3307037354,
        "name": "Cedar Ridge ",
        "state": "Illinois"
    },
    "9IS2": {
        "lat": 40.4822006226,
        "long": -88.2676010132,
        "name": "Schertz Field",
        "state": "Illinois"
    },
    "9IS5": {
        "lat": 41.8581008911,
        "long": -89.4073028564,
        "name": "J & Y Ultralightport",
        "state": "Illinois"
    },
    "9IS9": {
        "lat": 40.3344993591,
        "long": -88.9553985596,
        "name": "Lytleville Orchard ",
        "state": "Illinois"
    },
    "9LL0": {
        "lat": 39.8199996948,
        "long": -91.2210006714,
        "name": "Krutmeier ",
        "state": "Illinois"
    },
    "9LL2": {
        "lat": 38.0336990356,
        "long": -89.5792999268,
        "name": "Hepp ",
        "state": "Illinois"
    },
    "9LL3": {
        "lat": 39.5491981506,
        "long": -88.0323028564,
        "name": "John R Reed ",
        "state": "Illinois"
    },
    "9LL5": {
        "lat": 39.6511001587,
        "long": -89.4586029053,
        "name": "Tommy's Airpark",
        "state": "Illinois"
    },
    "9LL9": {
        "lat": 39.4846992493,
        "long": -88.4693984985,
        "name": "Townley Farms ",
        "state": "Illinois"
    },
    "II31": {
        "lat": 41.1879005432,
        "long": -88.167098999,
        "name": "Jurassic Landings Ultralightport",
        "state": "Illinois"
    },
    "IL01": {
        "lat": 40.7924995422,
        "long": -90.4382019043,
        "name": "Wolford's ",
        "state": "Illinois"
    },
    "IL02": {
        "lat": 42.4721984863,
        "long": -87.9084014893,
        "name": "Herbert C. Maas ",
        "state": "Illinois"
    },
    "IL05": {
        "lat": 42.4402999878,
        "long": -88.4889984131,
        "name": "Bingham ",
        "state": "Illinois"
    },
    "IL07": {
        "lat": 41.7235984802,
        "long": -89.2918014526,
        "name": "Taylor ",
        "state": "Illinois"
    },
    "IL09": {
        "lat": 41.631401062,
        "long": -89.4050979614,
        "name": "Albrecht /2/ ",
        "state": "Illinois"
    },
    "IL11": {
        "lat": 42.4653015137,
        "long": -88.040397644,
        "name": "Donald Alfred Gade ",
        "state": "Illinois"
    },
    "IL12": {
        "lat": 39.8800010681,
        "long": -90.4651031494,
        "name": "Kinsey RLA Restricted Landing Area",
        "state": "Illinois"
    },
    "IL13": {
        "lat": 41.4707984924,
        "long": -89.1808013916,
        "name": "Funfsinn ",
        "state": "Illinois"
    },
    "IL15": {
        "lat": 40.5694007874,
        "long": -90.5486984253,
        "name": "Runyan Aviation ",
        "state": "Illinois"
    },
    "IL16": {
        "lat": 37.5401000977,
        "long": -89.1225967407,
        "name": "Houseman ",
        "state": "Illinois"
    },
    "IL18": {
        "lat": 38.3870010376,
        "long": -90.1918029785,
        "name": "Crook Restricted Landing Area",
        "state": "Illinois"
    },
    "IL22": {
        "lat": 41.0070991516,
        "long": -90.8828964233,
        "name": "Heeg ",
        "state": "Illinois"
    },
    "IL23": {
        "lat": 42.4425010681,
        "long": -89.4501037598,
        "name": "Ellis ",
        "state": "Illinois"
    },
    "IL24": {
        "lat": 39.7075004578,
        "long": -89.883102417,
        "name": "Richardson ",
        "state": "Illinois"
    },
    "IL29": {
        "lat": 41.2999992371,
        "long": -87.6500015259,
        "name": "Von Alvens Airview ",
        "state": "Illinois"
    },
    "IL31": {
        "lat": 39.8432998657,
        "long": -88.4533004761,
        "name": "Cooch Landing Area ",
        "state": "Illinois"
    },
    "IL32": {
        "lat": 39.7832984924,
        "long": -88.6213989258,
        "name": "Adkisson ",
        "state": "Illinois"
    },
    "IL34": {
        "lat": 42.2145004272,
        "long": -88.7570037842,
        "name": "Henderson ",
        "state": "Illinois"
    },
    "IL35": {
        "lat": 38.1819992065,
        "long": -89.8084030151,
        "name": "Redpath Restricted Landing Area",
        "state": "Illinois"
    },
    "IL36": {
        "lat": 42.3208999634,
        "long": -88.7583999634,
        "name": "Bob Walberg Field",
        "state": "Illinois"
    },
    "IL38": {
        "lat": 41.766998291,
        "long": -88.5319976807,
        "name": "J Maddock ",
        "state": "Illinois"
    },
    "IL45": {
        "lat": 40.3111000061,
        "long": -88.015296936,
        "name": "Busboom ",
        "state": "Illinois"
    },
    "IL46": {
        "lat": 40.4667015076,
        "long": -91.0335006714,
        "name": "Brooks Ranch ",
        "state": "Illinois"
    },
    "IL51": {
        "lat": 41.0381011963,
        "long": -88.3375015259,
        "name": "Aero Acres ",
        "state": "Illinois"
    },
    "IL52": {
        "lat": 40.439201355,
        "long": -91.1439971924,
        "name": "Williams ",
        "state": "Illinois"
    },
    "IL53": {
        "lat": 40.4612007141,
        "long": -91.0737991333,
        "name": "Lung RLA Restricted Landing Area",
        "state": "Illinois"
    },
    "IL54": {
        "lat": 40.3442001343,
        "long": -90.4428024292,
        "name": "Richmond ",
        "state": "Illinois"
    },
    "IL55": {
        "lat": 40.1603012085,
        "long": -88.3044967651,
        "name": "Andrew RLA Restricted Landing Area ",
        "state": "Illinois"
    },
    "IL56": {
        "lat": 40.2202987671,
        "long": -88.2537002563,
        "name": "Mc Culley ",
        "state": "Illinois"
    },
    "IL57": {
        "lat": 40.422000885,
        "long": -89.0205993652,
        "name": "Cottonwood ",
        "state": "Illinois"
    },
    "IL58": {
        "lat": 41.4361000061,
        "long": -88.2487030029,
        "name": "Aero Four ",
        "state": "Illinois"
    },
    "IL59": {
        "lat": 41.43199921,
        "long": -88.24729919,
        "name": "Chicago Glider Club Gliderport",
        "state": "Illinois"
    },
    "IL60": {
        "lat": 40.7430992126,
        "long": -88.2911987305,
        "name": "Chatsworth Restricted Landing Area",
        "state": "Illinois"
    },
    "IL63": {
        "lat": 40.7000007629,
        "long": -88.6751022339,
        "name": "Mays Aviation ",
        "state": "Illinois"
    },
    "IL64": {
        "lat": 40.1805992126,
        "long": -89.5000991821,
        "name": "Martin ",
        "state": "Illinois"
    },
    "IL65": {
        "lat": 41.0050010681,
        "long": -90.7085037231,
        "name": "M.A.M Trail ",
        "state": "Illinois"
    },
    "IL68": {
        "lat": 42.07720184,
        "long": -88.15979767,
        "name": "Mill Rose Farm Restricted Landing Area",
        "state": "Illinois"
    },
    "IL71": {
        "lat": 37.81919861,
        "long": -89.15219879,
        "name": "Dury Estates ",
        "state": "Illinois"
    },
    "IL72": {
        "lat": 41.1156005859,
        "long": -89.0447998047,
        "name": "Entwistle ",
        "state": "Illinois"
    },
    "IL78": {
        "lat": 41.1310997009,
        "long": -87.7922973633,
        "name": "Benoit ",
        "state": "Illinois"
    },
    "IL81": {
        "lat": 40.9361000061,
        "long": -88.0417022705,
        "name": "Berns ",
        "state": "Illinois"
    },
    "IL82": {
        "lat": 40.109500885,
        "long": -88.8286972046,
        "name": "Martin RLA Restricted Landing Area",
        "state": "Illinois"
    },
    "IL84": {
        "lat": 40.5764007568,
        "long": -91.102897644,
        "name": "Douglas ",
        "state": "Illinois"
    },
    "IL86": {
        "lat": 39.9361991882,
        "long": -90.466796875,
        "name": "Krohe ",
        "state": "Illinois"
    },
    "IL87": {
        "lat": 41.711101532,
        "long": -89.1122970581,
        "name": "W Davis ",
        "state": "Illinois"
    },
    "IL88": {
        "lat": 41.6749992371,
        "long": -89.1167984009,
        "name": "Earl Barnickel ",
        "state": "Illinois"
    },
    "IL91": {
        "lat": 41.0209007263,
        "long": -88.6533966064,
        "name": "Testoni Farms ",
        "state": "Illinois"
    },
    "IL93": {
        "lat": 41.9453010559,
        "long": -88.9240036011,
        "name": "Hendrickson Flying Service ",
        "state": "Illinois"
    },
    "IL94": {
        "lat": 40.2262992859,
        "long": -89.2428970337,
        "name": "Hoblit Farms ",
        "state": "Illinois"
    },
    "IL95": {
        "lat": 41.2230987549,
        "long": -88.1453018188,
        "name": "Corn Field",
        "state": "Illinois"
    },
    "IL97": {
        "lat": 39.7369995117,
        "long": -89.8097991943,
        "name": "Springfield Southwest Airpark",
        "state": "Illinois"
    },
    "IL99": {
        "lat": 41.5928001404,
        "long": -88.967300415,
        "name": "B & C ",
        "state": "Illinois"
    },
    "IS00": {
        "lat": 40.8417015076,
        "long": -89.2744979858,
        "name": "Jay Schertz Farm ",
        "state": "Illinois"
    },
    "IS01": {
        "lat": 39.268901825,
        "long": -89.9039993286,
        "name": "Denby ",
        "state": "Illinois"
    },
    "IS02": {
        "lat": 40.7784004211,
        "long": -87.7917022705,
        "name": "Dietchweiler ",
        "state": "Illinois"
    },
    "IS08": {
        "lat": 40.2627983093,
        "long": -90.2368011475,
        "name": "Curless ",
        "state": "Illinois"
    },
    "IS13": {
        "lat": 39.5792007446,
        "long": -87.8486022949,
        "name": "Bussart ",
        "state": "Illinois"
    },
    "IS15": {
        "lat": 42.0325012207,
        "long": -88.9026031494,
        "name": "Vodden ",
        "state": "Illinois"
    },
    "IS16": {
        "lat": 37.4667015076,
        "long": -89.2284011841,
        "name": "Hartline Air Strip STOLport",
        "state": "Illinois"
    },
    "IS19": {
        "lat": 42.3353004456,
        "long": -89.323600769,
        "name": "Carlson RLA Restricted Landing Area",
        "state": "Illinois"
    },
    "IS24": {
        "lat": 39.077778,
        "long": -89.081667,
        "name": "Harris ",
        "state": "Illinois"
    },
    "IS26": {
        "lat": 40.1833992004,
        "long": -88.6153030396,
        "name": "Niklaus RLA Restricted Landing Area",
        "state": "Illinois"
    },
    "IS33": {
        "lat": 39.0456008911,
        "long": -89.8406982422,
        "name": "Willhoit ",
        "state": "Illinois"
    },
    "IS34": {
        "lat": 38.7066993713,
        "long": -87.6333999634,
        "name": "Piper's Landing ",
        "state": "Illinois"
    },
    "IS37": {
        "lat": 42.3238983154,
        "long": -89.9928970337,
        "name": "Stockton ",
        "state": "Illinois"
    },
    "IS40": {
        "lat": 42.0943984985,
        "long": -89.0271987915,
        "name": "Eudy ",
        "state": "Illinois"
    },
    "IS41": {
        "lat": 41.460899353,
        "long": -88.5920028687,
        "name": "Vogen Restricted Landing Area",
        "state": "Illinois"
    },
    "IS43": {
        "lat": 39.8699989319,
        "long": -88.0749969482,
        "name": "Riggins Farms ",
        "state": "Illinois"
    },
    "IS45": {
        "lat": 39.9766998291,
        "long": -91.3339996338,
        "name": "Mast Field",
        "state": "Illinois"
    },
    "IS47": {
        "lat": 42.0306015015,
        "long": -88.7017974854,
        "name": "Willis ",
        "state": "Illinois"
    },
    "IS51": {
        "lat": 40.4514007568,
        "long": -91.2037963867,
        "name": "Schilson Field",
        "state": "Illinois"
    },
    "IS52": {
        "lat": 40.9277992249,
        "long": -87.6224975586,
        "name": "Russell ",
        "state": "Illinois"
    },
    "IS54": {
        "lat": 39.6431007385,
        "long": -89.1445007324,
        "name": "Mc Christy ",
        "state": "Illinois"
    },
    "IS55": {
        "lat": 40.5909004211,
        "long": -90.9423980713,
        "name": "Morton ",
        "state": "Illinois"
    },
    "IS56": {
        "lat": 40.0881004333,
        "long": -90.8853988647,
        "name": "Herren ",
        "state": "Illinois"
    },
    "IS57": {
        "lat": 42.1796989441,
        "long": -88.6327972412,
        "name": "Wind Rose Farm ",
        "state": "Illinois"
    },
    "IS59": {
        "lat": 42.1338996887,
        "long": -88.9242019653,
        "name": "Rotstein ",
        "state": "Illinois"
    },
    "IS60": {
        "lat": 39.19419861,
        "long": -90.15609741,
        "name": "Nixon Restricted Landing Area",
        "state": "Illinois"
    },
    "IS62": {
        "lat": 40.8672981262,
        "long": -89.4531021118,
        "name": "John D Rennick ",
        "state": "Illinois"
    },
    "IS63": {
        "lat": 41.9702987671,
        "long": -88.7509002686,
        "name": "Hoffman ",
        "state": "Illinois"
    },
    "IS64": {
        "lat": 40.7230987549,
        "long": -88.8666992188,
        "name": "Kuntz Field",
        "state": "Illinois"
    },
    "IS65": {
        "lat": 41.6384010315,
        "long": -88.6445007324,
        "name": "Woodlake Landing ",
        "state": "Illinois"
    },
    "IS66": {
        "lat": 40.592300415,
        "long": -91.201499939,
        "name": "Rhea Restricted Landing Area",
        "state": "Illinois"
    },
    "IS69": {
        "lat": 39.9188995361,
        "long": -90.5110015869,
        "name": "Kloker ",
        "state": "Illinois"
    },
    "IS71": {
        "lat": 42.4583015442,
        "long": -89.1949996948,
        "name": "Koch ",
        "state": "Illinois"
    },
    "IS73": {
        "lat": 41.5325012207,
        "long": -89.7018966675,
        "name": "Woodley Aerial Spray ",
        "state": "Illinois"
    },
    "IS77": {
        "lat": 39.2207984924,
        "long": -89.3328018188,
        "name": "Hoehn RLA Restricted Landing Area",
        "state": "Illinois"
    },
    "IS78": {
        "lat": 42.3666992188,
        "long": -89.2319030762,
        "name": "Early - Merkel Field",
        "state": "Illinois"
    },
    "IS80": {
        "lat": 41.9178009033,
        "long": -88.7892990112,
        "name": "Uncle Chuck's ",
        "state": "Illinois"
    },
    "IS82": {
        "lat": 39.3381004333,
        "long": -90.1781005859,
        "name": "Arras RLA Restricted Landing Area",
        "state": "Illinois"
    },
    "IS83": {
        "lat": 42.2275009155,
        "long": -88.7671966553,
        "name": "Untied Acres ",
        "state": "Illinois"
    },
    "IS85": {
        "lat": 39.5047988892,
        "long": -90.5054016113,
        "name": "Newton ",
        "state": "Illinois"
    },
    "IS86": {
        "lat": 41.0416984558,
        "long": -88.1917037964,
        "name": "Hendrix ",
        "state": "Illinois"
    },
    "IS88": {
        "lat": 40.148601532,
        "long": -87.6945037842,
        "name": "Melody Field",
        "state": "Illinois"
    },
    "IS93": {
        "lat": 42.4425010681,
        "long": -89.4992980957,
        "name": "Sue Rock International ",
        "state": "Illinois"
    },
    "IS94": {
        "lat": 41.6055984497,
        "long": -88.6612014771,
        "name": "Johnson ",
        "state": "Illinois"
    },
    "IS95": {
        "lat": 41.5586013794,
        "long": -88.6644973755,
        "name": "Harrington Farms ",
        "state": "Illinois"
    },
    "K06C": {
        "lat": 41.9892997742,
        "long": -88.1011962891,
        "name": "Schaumburg Regional ",
        "state": "Illinois"
    },
    "K0C0": {
        "lat": 42.4025001526,
        "long": -88.6324005127,
        "name": "Dacy ",
        "state": "Illinois"
    },
    "K10C": {
        "lat": 42.4029006958,
        "long": -88.3750991821,
        "name": "Galt Field",
        "state": "Illinois"
    },
    "K1C1": {
        "lat": 40.4490013123,
        "long": -88.1277008057,
        "name": "Paxton ",
        "state": "Illinois"
    },
    "K1C5": {
        "lat": 41.6959991455,
        "long": -88.1292037964,
        "name": "Bolingbrook's Clow International ",
        "state": "Illinois"
    },
    "K1H2": {
        "lat": 39.070400238,
        "long": -88.5335006714,
        "name": "Effingham County Memorial ",
        "state": "Illinois"
    },
    "K1H8": {
        "lat": 39.3025016785,
        "long": -88.0040969849,
        "name": "Casey Municipal ",
        "state": "Illinois"
    },
    "K3CK": {
        "lat": 42.2067985535,
        "long": -88.3229980469,
        "name": "Lake in the Hills ",
        "state": "Illinois"
    },
    "K3K6": {
        "lat": 38.7328987122,
        "long": -89.806602478,
        "name": "St Louis Metro East Shafer Field",
        "state": "Illinois"
    },
    "K3LF": {
        "lat": 39.1624984741,
        "long": -89.6745986938,
        "name": "Litchfield Municipal ",
        "state": "Illinois"
    },
    "K3MY": {
        "lat": 40.79529953,
        "long": -89.61340332,
        "name": "Mount Hawley Auxiliary ",
        "state": "Illinois"
    },
    "K5K1": {
        "lat": 39.4199981689,
        "long": -89.9912033081,
        "name": "Zelmer Memorial Airpark Inc ",
        "state": "Illinois"
    },
    "K7A4": {
        "lat": 42.4664001465,
        "long": -90.1694030762,
        "name": "Foster Field",
        "state": "Illinois"
    },
    "K8N2": {
        "lat": 41.3997993469,
        "long": -88.7938995361,
        "name": "Skydive Chicago ",
        "state": "Illinois"
    },
    "KAAA": {
        "lat": 40.1586990356,
        "long": -89.3349990845,
        "name": "Logan County ",
        "state": "Illinois"
    },
    "KAJG": {
        "lat": 38.60649872,
        "long": -87.72669983,
        "name": "Mount Carmel Municipal ",
        "state": "Illinois"
    },
    "KALN": {
        "lat": 38.8903007507,
        "long": -90.0459976196,
        "name": "St Louis Regional ",
        "state": "Illinois"
    },
    "KARR": {
        "lat": 41.771900177,
        "long": -88.4757003784,
        "name": "Aurora Municipal ",
        "state": "Illinois"
    },
    "KBLF": {
        "lat": 37.2957992554,
        "long": -81.2077026367,
        "name": "Mercer County ",
        "state": "Illinois"
    },
    "KBLV": {
        "lat": 38.54520035,
        "long": -89.83519745,
        "name": "Scott AFB/Midamerica ",
        "state": "Illinois"
    },
    "KBMI": {
        "lat": 40.47710037,
        "long": -88.91590118,
        "name": "Central Illinois Regional  at Bloomington-Normal",
        "state": "Illinois"
    },
    "KC09": {
        "lat": 41.42539978,
        "long": -88.41870117,
        "name": "Morris Municipal James R. Washburn field",
        "state": "Illinois"
    },
    "KC15": {
        "lat": 40.4882011414,
        "long": -89.6759033203,
        "name": "Pekin Municipal ",
        "state": "Illinois"
    },
    "KC16": {
        "lat": 40.1464004517,
        "long": -88.1985015869,
        "name": "Frasca Field",
        "state": "Illinois"
    },
    "KC73": {
        "lat": 41.83369827,
        "long": -89.44619751,
        "name": "Dixon Municipal Charles R. Walgreen Field",
        "state": "Illinois"
    },
    "KC75": {
        "lat": 41.0192985535,
        "long": -89.3863983154,
        "name": "Marshall County ",
        "state": "Illinois"
    },
    "KC77": {
        "lat": 42.3228988647,
        "long": -88.8363037109,
        "name": "Poplar Grove ",
        "state": "Illinois"
    },
    "KC81": {
        "lat": 42.3246002197,
        "long": -88.0740966797,
        "name": "Campbell ",
        "state": "Illinois"
    },
    "KCIR": {
        "lat": 37.0644989014,
        "long": -89.2195968628,
        "name": "Cairo Regional ",
        "state": "Illinois"
    },
    "KCMI": {
        "lat": 40.03919983,
        "long": -88.27809906,
        "name": "University of Illinois Willard ",
        "state": "Illinois"
    },
    "KCPS": {
        "lat": 38.5707015991,
        "long": -90.1561965942,
        "name": "St Louis Downtown ",
        "state": "Illinois"
    },
    "KCTK": {
        "lat": 40.5690994263,
        "long": -90.074798584,
        "name": "Ingersoll ",
        "state": "Illinois"
    },
    "KCUL": {
        "lat": 38.0895004272,
        "long": -88.1231002808,
        "name": "Carmi Municipal ",
        "state": "Illinois"
    },
    "KDEC": {
        "lat": 39.8345985413,
        "long": -88.8656997681,
        "name": "Decatur ",
        "state": "Illinois"
    },
    "KDKB": {
        "lat": 41.93370056,
        "long": -88.70570374,
        "name": "De Kalb Taylor Municipal ",
        "state": "Illinois"
    },
    "KDNV": {
        "lat": 40.19919968,
        "long": -87.59590149,
        "name": "Vermilion Regional ",
        "state": "Illinois"
    },
    "KDPA": {
        "lat": 41.90779877,
        "long": -88.24859619,
        "name": "Dupage ",
        "state": "Illinois"
    },
    "KDTG": {
        "lat": 41.1333007812,
        "long": -88.4408035278,
        "name": "Dwight ",
        "state": "Illinois"
    },
    "KENL": {
        "lat": 38.5150985718,
        "long": -89.0911026001,
        "name": "Centralia Municipal ",
        "state": "Illinois"
    },
    "KEZI": {
        "lat": 41.2052001953,
        "long": -89.9638977051,
        "name": "Kewanee Municipal ",
        "state": "Illinois"
    },
    "KFEP": {
        "lat": 42.2462005615,
        "long": -89.5820007324,
        "name": "Albertus ",
        "state": "Illinois"
    },
    "KFOA": {
        "lat": 38.6649017334,
        "long": -88.4530029297,
        "name": "Flora Municipal ",
        "state": "Illinois"
    },
    "KFWC": {
        "lat": 38.3786010742,
        "long": -88.4126968384,
        "name": "Fairfield Municipal ",
        "state": "Illinois"
    },
    "KGBG": {
        "lat": 40.9379997253,
        "long": -90.431098938,
        "name": "Galesburg Municipal ",
        "state": "Illinois"
    },
    "KGRE": {
        "lat": 38.8362007141,
        "long": -89.37840271,
        "name": "Greenville ",
        "state": "Illinois"
    },
    "KH96": {
        "lat": 38.0066986084,
        "long": -88.9344024658,
        "name": "Benton Municipal ",
        "state": "Illinois"
    },
    "KHSB": {
        "lat": 37.81129837,
        "long": -88.5503006,
        "name": "Harrisburg Raleigh ",
        "state": "Illinois"
    },
    "KI63": {
        "lat": 39.98749924,
        "long": -90.80419922,
        "name": "Mount Sterling Municipal ",
        "state": "Illinois"
    },
    "KIGQ": {
        "lat": 41.5349006653,
        "long": -87.5295028687,
        "name": "Lansing Municipal ",
        "state": "Illinois"
    },
    "KIJX": {
        "lat": 39.7746009827,
        "long": -90.2382965088,
        "name": "Jacksonville Municipal ",
        "state": "Illinois"
    },
    "KIKK": {
        "lat": 41.0713996887,
        "long": -87.8462982178,
        "name": "Greater Kankakee ",
        "state": "Illinois"
    },
    "KINJ": {
        "lat": 32.08349991,
        "long": -97.09719849,
        "name": "Hillsboro Municipal ",
        "state": "Illinois"
    },
    "KJOT": {
        "lat": 41.51779938,
        "long": -88.17549896,
        "name": "Joliet Regional ",
        "state": "Illinois"
    },
    "KK06": {
        "lat": 39.973400116,
        "long": -90.4037017822,
        "name": "Greater Beardstown ",
        "state": "Illinois"
    },
    "KLOT": {
        "lat": 41.6072998,
        "long": -88.09619904,
        "name": "Lewis University ",
        "state": "Illinois"
    },
    "KLWV": {
        "lat": 38.7643013,
        "long": -87.6054992676,
        "name": "Lawrenceville Vincennes International ",
        "state": "Illinois"
    },
    "KM30": {
        "lat": 37.1859016418,
        "long": -88.7506027222,
        "name": "Metropolis Municipal ",
        "state": "Illinois"
    },
    "KMDH": {
        "lat": 37.7780990601,
        "long": -89.2519989014,
        "name": "Southern Illinois ",
        "state": "Illinois"
    },
    "KMDW": {
        "lat": 41.7859992981,
        "long": -87.7524032593,
        "name": "Chicago Midway International ",
        "state": "Illinois"
    },
    "KMLI": {
        "lat": 41.4485015869,
        "long": -90.5074996948,
        "name": "Quad City International ",
        "state": "Illinois"
    },
    "KMQB": {
        "lat": 40.5200996399,
        "long": -90.6523971558,
        "name": "Macomb Municipal ",
        "state": "Illinois"
    },
    "KMTO": {
        "lat": 39.47790146,
        "long": -88.27919769,
        "name": "Coles County Memorial ",
        "state": "Illinois"
    },
    "KMVN": {
        "lat": 38.3233985901,
        "long": -88.8588027954,
        "name": "Mount Vernon ",
        "state": "Illinois"
    },
    "KMWA": {
        "lat": 37.75500107,
        "long": -89.01110077,
        "name": "Williamson County Regional ",
        "state": "Illinois"
    },
    "KOEA": {
        "lat": 38.6913986206,
        "long": -87.5522003174,
        "name": "O'Neal ",
        "state": "Illinois"
    },
    "KOLY": {
        "lat": 38.7218017578,
        "long": -88.176399231,
        "name": "Olney Noble ",
        "state": "Illinois"
    },
    "KORD": {
        "lat": 41.97859955,
        "long": -87.90480042,
        "name": "Chicago O'Hare International ",
        "state": "Illinois"
    },
    "KPIA": {
        "lat": 40.6641998291,
        "long": -89.6932983398,
        "name": "Greater Peoria Regional ",
        "state": "Illinois"
    },
    "KPJY": {
        "lat": 37.9779014587,
        "long": -89.360496521,
        "name": "Pinckneyville Du Quoin ",
        "state": "Illinois"
    },
    "KPNT": {
        "lat": 40.9244003296,
        "long": -88.6239013672,
        "name": "Pontiac Municipal ",
        "state": "Illinois"
    },
    "KPPQ": {
        "lat": 39.6389007568,
        "long": -90.7783966064,
        "name": "Pittsfield Penstone Municipal ",
        "state": "Illinois"
    },
    "KPRG": {
        "lat": 39.7001991272,
        "long": -87.6696014404,
        "name": "Edgar County ",
        "state": "Illinois"
    },
    "KPWK": {
        "lat": 42.114222,
        "long": -87.901494,
        "name": "Chicago Executive ",
        "state": "Illinois"
    },
    "KRFD": {
        "lat": 42.195400238,
        "long": -89.0971984863,
        "name": "Chicago Rockford International ",
        "state": "Illinois"
    },
    "KRPJ": {
        "lat": 41.8930015564,
        "long": -89.0783004761,
        "name": "Rochelle Municipal  - Koritz Field",
        "state": "Illinois"
    },
    "KRSV": {
        "lat": 39.0159988403,
        "long": -87.6498031616,
        "name": "Robinson Municipal ",
        "state": "Illinois"
    },
    "KSAR": {
        "lat": 38.1488990784,
        "long": -89.6986999512,
        "name": "Sparta Community Hunter Field",
        "state": "Illinois"
    },
    "KSFY": {
        "lat": 42.0457992554,
        "long": -90.1079025269,
        "name": "Tri Township ",
        "state": "Illinois"
    },
    "KSLO": {
        "lat": 38.6428985596,
        "long": -88.9642028809,
        "name": "Salem Leckrone ",
        "state": "Illinois"
    },
    "KSPI": {
        "lat": 39.84410095,
        "long": -89.67790222,
        "name": "Abraham Lincoln Capital ",
        "state": "Illinois"
    },
    "KSQI": {
        "lat": 41.74280167,
        "long": -89.67630005,
        "name": "Whiteside Co Arpt-Jos H Bittorf field",
        "state": "Illinois"
    },
    "KTAZ": {
        "lat": 39.534198761,
        "long": -89.327796936,
        "name": "Taylorville Municipal ",
        "state": "Illinois"
    },
    "KTIP": {
        "lat": 40.29359818,
        "long": -88.14240265,
        "name": "Rantoul National Avn Center-Frank Elliot field",
        "state": "Illinois"
    },
    "KUGN": {
        "lat": 42.4221992493,
        "long": -87.8678970337,
        "name": "Waukegan Regional ",
        "state": "Illinois"
    },
    "KUIN": {
        "lat": 39.94269943,
        "long": -91.19460297,
        "name": "Quincy Regional Baldwin Field",
        "state": "Illinois"
    },
    "KVLA": {
        "lat": 38.9915008545,
        "long": -89.1661987305,
        "name": "Vandalia Municipal ",
        "state": "Illinois"
    },
    "KVYS": {
        "lat": 41.35189819,
        "long": -89.15309906,
        "name": "Illinois Valley Regional-Walter A Duncan field",
        "state": "Illinois"
    },
    "LL07": {
        "lat": 42.0638999939,
        "long": -89.9695968628,
        "name": "Tautz ",
        "state": "Illinois"
    },
    "LL09": {
        "lat": 42.2806015015,
        "long": -88.0944976807,
        "name": "Air Estates Inc ",
        "state": "Illinois"
    },
    "LL10": {
        "lat": 41.7347984314,
        "long": -88.2033996582,
        "name": "Naper Aero Club ",
        "state": "Illinois"
    },
    "LL13": {
        "lat": 38.0485992432,
        "long": -88.3005981445,
        "name": "Stoney Real Estate ",
        "state": "Illinois"
    },
    "LL18": {
        "lat": 41.0973014832,
        "long": -90.4529037476,
        "name": "Ernest E Orwig ",
        "state": "Illinois"
    },
    "LL20": {
        "lat": 39.3130989075,
        "long": -90.2778015137,
        "name": "Smith Restricted Landing Area",
        "state": "Illinois"
    },
    "LL22": {
        "lat": 41.7327003479,
        "long": -87.9992980957,
        "name": "Brookeridge Air Park",
        "state": "Illinois"
    },
    "LL23": {
        "lat": 41.01720047,
        "long": -90.8777999878,
        "name": "Meyer ",
        "state": "Illinois"
    },
    "LL24": {
        "lat": 41.2070007324,
        "long": -87.7853012085,
        "name": "Sunset Acres ",
        "state": "Illinois"
    },
    "LL26": {
        "lat": 38.2750015259,
        "long": -89.8709030151,
        "name": "Schaller ",
        "state": "Illinois"
    },
    "LL27": {
        "lat": 40.4542007446,
        "long": -90.6234970093,
        "name": "Smith ",
        "state": "Illinois"
    },
    "LL28": {
        "lat": 42.432800293,
        "long": -88.7172012329,
        "name": "Sd Aero ",
        "state": "Illinois"
    },
    "LL32": {
        "lat": 40.4500007629,
        "long": -88.0749969482,
        "name": "C D Maulding ",
        "state": "Illinois"
    },
    "LL33": {
        "lat": 40.57970047,
        "long": -90.6797027588,
        "name": "Rdh Farms ",
        "state": "Illinois"
    },
    "LL34": {
        "lat": 40.2167015076,
        "long": -88.900100708,
        "name": "Thorp ",
        "state": "Illinois"
    },
    "LL38": {
        "lat": 41.8102989197,
        "long": -89.8383026123,
        "name": "Stutzke ",
        "state": "Illinois"
    },
    "LL39": {
        "lat": 41.2574996948,
        "long": -88.4777984619,
        "name": "Curanda ",
        "state": "Illinois"
    },
    "LL40": {
        "lat": 41.4775009155,
        "long": -87.8404998779,
        "name": "Frankfort ",
        "state": "Illinois"
    },
    "LL43": {
        "lat": 41.4500007629,
        "long": -89.1667022705,
        "name": "Gerald H Hamer ",
        "state": "Illinois"
    },
    "LL44": {
        "lat": 41.2985992432,
        "long": -89.1092987061,
        "name": "Trovero ",
        "state": "Illinois"
    },
    "LL45": {
        "lat": 39.1823005676,
        "long": -89.8218002319,
        "name": "Lindell Loveless ",
        "state": "Illinois"
    },
    "LL46": {
        "lat": 40.8353004456,
        "long": -88.1528015137,
        "name": "Read ",
        "state": "Illinois"
    },
    "LL48": {
        "lat": 39.9491996765,
        "long": -89.7425003052,
        "name": "Wilcoxon ",
        "state": "Illinois"
    },
    "LL49": {
        "lat": 39.0621986389,
        "long": -90.2722015381,
        "name": "Raymond Restricted Landing Area",
        "state": "Illinois"
    },
    "LL51": {
        "lat": 41.6041984558,
        "long": -88.2736968994,
        "name": "Riley's Field",
        "state": "Illinois"
    },
    "LL52": {
        "lat": 41.1610984802,
        "long": -88.9391021729,
        "name": "Wilts ",
        "state": "Illinois"
    },
    "LL53": {
        "lat": 42.0088996887,
        "long": -88.4576034546,
        "name": "Olson ",
        "state": "Illinois"
    },
    "LL54": {
        "lat": 41.7193984985,
        "long": -89.0299987793,
        "name": "Dunn ",
        "state": "Illinois"
    },
    "LL55": {
        "lat": 41.9908981323,
        "long": -89.5597991943,
        "name": "Gentry ",
        "state": "Illinois"
    },
    "LL56": {
        "lat": 40.8842010498,
        "long": -88.5908966064,
        "name": "Schott ",
        "state": "Illinois"
    },
    "LL61": {
        "lat": 41.6856002808,
        "long": -89.9026031494,
        "name": "Doering's Port ",
        "state": "Illinois"
    },
    "LL64": {
        "lat": 41.1995010376,
        "long": -89.3945007324,
        "name": "Ralph E. Daniels ",
        "state": "Illinois"
    },
    "LL65": {
        "lat": 41.1944999695,
        "long": -89.4501037598,
        "name": "Edgar Read ",
        "state": "Illinois"
    },
    "LL66": {
        "lat": 41.2122993469,
        "long": -88.6930999756,
        "name": "Egland Field",
        "state": "Illinois"
    },
    "LL69": {
        "lat": 39.2108421986,
        "long": -89.1182398796,
        "name": "Brewer ",
        "state": "Illinois"
    },
    "LL74": {
        "lat": 42.0083999634,
        "long": -89.0486984253,
        "name": "Maple Hurst Farms ",
        "state": "Illinois"
    },
    "LL75": {
        "lat": 42.4249992371,
        "long": -89.4501037598,
        "name": "Chester Wyss ",
        "state": "Illinois"
    },
    "LL78": {
        "lat": 42.3116989136,
        "long": -89.1509017944,
        "name": "Lz Fairwinds ",
        "state": "Illinois"
    },
    "LL79": {
        "lat": 42.3931007385,
        "long": -89.1306991577,
        "name": "Severson ",
        "state": "Illinois"
    },
    "LL80": {
        "lat": 42.3819999695,
        "long": -89.1612014771,
        "name": "Darrington ",
        "state": "Illinois"
    },
    "LL81": {
        "lat": 42.375,
        "long": -89.070098877,
        "name": "Spickard-Marshall ",
        "state": "Illinois"
    },
    "LL87": {
        "lat": 42.4556007385,
        "long": -88.9029006958,
        "name": "Compass Rose ",
        "state": "Illinois"
    },
    "LL88": {
        "lat": 42.4749984741,
        "long": -89.0889968872,
        "name": "Harry D Fenton ",
        "state": "Illinois"
    },
    "LL89": {
        "lat": 42.4872016907,
        "long": -89.1079025269,
        "name": "Blackhawk Farms Inc ",
        "state": "Illinois"
    },
    "LL90": {
        "lat": 42.4458999634,
        "long": -88.900100708,
        "name": "Mc Curdy Strip",
        "state": "Illinois"
    },
    "LL91": {
        "lat": 42.4157981873,
        "long": -89.4529037476,
        "name": "Hillman ",
        "state": "Illinois"
    },
    "LL94": {
        "lat": 42.4345016479,
        "long": -88.99949646,
        "name": "Mc Curdy ",
        "state": "Illinois"
    },
    "LL97": {
        "lat": 42.3389015198,
        "long": -88.0848007202,
        "name": "Rockenbach ",
        "state": "Illinois"
    },
    "LL98": {
        "lat": 40.9435997009,
        "long": -89.1082992554,
        "name": "John W Meils Restricted Landing Area",
        "state": "Illinois"
    }
}